,ein,name,ico,street,city,state,zip,group,subsection,affiliation,classification,ruling,deductibility,foundation,activity,organization,status,tax_period,asset_cd,income_cd,filing_req_cd,pf_filing_req_cd,acct_pd,asset_amt,income_amt,revenue_amt,ntee_cd,sort_name,lat,lon
0,387098075,RUNNYMEDE SANCTUARY UA OF DIANA S WISTER 08052013 TR,% BALLARD SPAHR LLP,304 CREEK RD,COATESVILLE,PA,19320-5003,0,3,3,1000,201408,1,3,0,1,1,201712.0,9,8,0,1,12,80101146.0,16283665.0,,D34,MARGARET DURICZ ET AL TTEE,39.903894,-75.863177
1,232890132,PURRFECT LOVE HUMANE SOCIETY,% DARLA K RISCH,PO BOX 165,NESCOPECK,PA,18635-0165,0,3,3,1000,199801,1,3,913000000,2,1,201812.0,1,1,0,1,12,2622.0,2622.0,,D20,,41.049051,-76.189182
2,811232808,VIRGINIA J MORRIS FOUNDATION FOR THE PROTECTION OF ANIMALS,,169 KLINGER RD,CANONSBURG,PA,15317-5906,0,3,3,1000,201607,1,3,0,1,1,201612.0,4,4,0,1,12,130099.0,155087.0,,D20,,40.310748,-80.179666
3,465673595,NAIDU FAMILY FOUNDATION,% SANJIV NAIDU,745 BENT CREEK DR,LITITZ,PA,17543-8352,0,3,3,1000,201408,1,3,0,1,1,201812.0,6,2,0,1,12,1167461.0,22339.0,,D99,,40.120001,-76.352065
4,461409103,HUMANE PENNSYLVANIA FOUNDATION,,1729 N 11TH ST,READING,PA,19604-1502,0,3,3,1000,201303,1,21,0,1,1,201812.0,6,4,1,0,12,1050693.0,446016.0,446016.0,D11,,40.362106,-75.915405
5,475663896,ARL FOREVER HOME INC,,6926 HAMILTON AVE,PITTSBURGH,PA,15208-1733,0,3,3,1000,201603,1,21,0,1,1,201712.0,8,1,2,0,12,15135665.0,3526.0,3526.0,D11,,40.455933,-79.903826
6,208814996,CATNIP ACRES INC,% CAROL PULTORAK,155 DARK HOLLOW RD,WAYNESBURG,PA,15370-2434,0,3,3,1000,200712,1,3,0,1,1,201712.0,3,4,0,1,12,40763.0,298275.0,,D20,,39.887493,-80.144948
7,461628911,EQUORUM ET PLUS FOUNDATION INC,% STANLEY P YAVOROSKI,5729 STONEY HILL RD,NEW HOPE,PA,18938-5432,0,3,3,1240,201502,1,3,0,1,1,201812.0,5,4,0,1,12,879343.0,470591.0,,D20,,40.32268,-75.013281
8,800081786,BEST LITTLE CAT HOUSE IN PA,% LYNN STITT PRES,PO BOX 6346,HARRISBURG,PA,17112-0346,0,3,3,4100,200402,1,3,0,1,1,201712.0,4,3,0,1,12,156604.0,63842.0,,D20,,40.344295,-76.790248
9,233043404,YORK COUNTY DOG TRAINING CLUB,% STEPHANIE CAPKOVIC,2291 JONQUIL RD,YORK,PA,17403-5150,0,7,3,1000,200106,2,0,0,1,1,201906.0,3,3,1,0,6,62088.0,73590.0,73178.0,D60,,39.92441,-76.708238
10,251358171,ERIE KENNEL CLUB,% MS JANET AGRESTI NORMAN,PO BOX 2,ERIE,PA,16512-0002,0,4,3,3000,201301,2,0,998000000,1,1,201809.0,4,4,1,0,9,273467.0,117289.0,117289.0,D60,,42.030201,-80.257855
11,237040440,LYCOMING COUNTY BEAGLE CLUB INC,,120 VINCENT AVE,WATSONTOWN,PA,17777-8161,0,4,3,1000,201502,2,0,319281318,1,1,201808.0,5,3,2,0,8,662931.0,36392.0,36392.0,D19,,41.081765,-76.854429
12,232190157,PENNSYLVANIA HORSE SHOW ASSOCIATION,% DORIS D MACDONALD,1892 LITTLE RD,PERKIOMENVLLE,PA,18074-9652,0,4,3,3000,200306,2,0,0,1,1,201811.0,2,3,1,0,11,22088.0,56012.0,56012.0,D60,,40.325399,-75.482603
13,251335449,RAYBURN TOWNSHIP BEAGLE CLUB,% CRAIG GOLDINGER,169 CHURCH RD,KITTANNING,PA,16201-7423,0,7,3,1000,201304,2,0,284286000,1,1,201812.0,3,3,2,0,12,50591.0,43540.0,43540.0,D60,,40.783358,-79.596373
14,161351918,NATIONAL SHIBA CLUB OF AMERICA INC,% J HOLDEN,230 FALLS VILLAGE RD,PITTSBURGH,PA,15239-2552,0,4,3,3000,200705,2,0,0,1,1,201812.0,3,3,2,0,12,34894.0,30729.0,30729.0,D60,,40.454499,-79.718459
15,232214596,HARRISBURG KENNEL CLUB INC,% GLORIA HARTMAN,5989 BULL RD,DOVER,PA,17315-1745,0,4,3,1000,200108,2,0,998000000,1,1,201812.0,4,4,1,0,12,372607.0,209943.0,209943.0,D60,,40.069284,-76.841911
16,311682382,BRANDYWINE VALLEY DRIVING CLUB INC,% DORIS A GRASSI,130 PHEASANT HILL LN,LANDENBERG,PA,19350-1526,0,4,3,3000,200002,2,0,0,1,1,201812.0,3,1,2,0,12,43624.0,8362.0,5912.0,D60,,39.777514,-75.824603
17,472645828,KEYSTONE CANINE TRAINING CLUB,% DAN GOLDBERG,5167 BROWNSVILLE RD,PITTSBURGH,PA,15236-2644,0,7,3,1000,201512,2,0,0,1,1,201812.0,3,3,1,0,12,31266.0,74606.0,59583.0,D61,,40.345025,-79.985612
18,273985471,THREE RIVERS SHETLAND SHEEPDOG CLUB OF GREATER PITTSBURGH,% MATLYN CROMER,1617 MIDDLE RD,GLENSHAW,PA,15116-2539,0,7,3,1000,201203,2,0,0,1,1,201812.0,2,3,2,0,12,20868.0,38445.0,38445.0,D60,,40.533848,-79.938236
19,236278202,HUNTINGDON VALLEY KENNEL CLUB,% KATHY TARAS,PO BOX 411,HUNTINGDON VY,PA,19006-0411,0,4,3,1000,200703,2,0,0,1,1,201810.0,3,3,1,0,10,30012.0,71758.0,71758.0,D20,,40.1284,-75.060665
20,251487477,CENTRAL BEAGLE CLUB INC,% GREG RITTER,169 GOLDEN ROAD,SAXONBURG,PA,16056-0000,0,4,3,3000,201707,2,0,0,1,1,201710.0,4,1,2,0,10,146981.0,5753.0,5753.0,D60,,40.887184,-79.978219
21,232326494,TUNKHANNOCK BEAGLE CLUB,,350 FREAR HILL RD,TUNKHANNOCK,PA,18657-1753,0,4,3,3000,201008,2,0,0,1,1,201712.0,4,2,2,0,12,141478.0,10130.0,10130.0,D60,,41.527834,-75.976042
22,232501483,NORTH PENN BEAGLE CLUB,% JAMES REILLY,1120 FAIRHILL RD,SELLERSVILLE,PA,18960-3318,0,4,3,3000,200205,2,0,0,1,1,201812.0,4,1,2,0,12,461075.0,6644.0,6249.0,D61,,40.325701,-75.273915
23,233033785,TAIL BLAZERS AGILITY CLUB OF THE BRANDYWINE VALLY PENNSYLVANIA INC,% PAM SMITH,PO BOX 560,NEWTOWN SQ,PA,19073-0560,0,4,3,3000,200210,2,0,0,1,1,201812.0,3,3,1,0,12,59613.0,90621.0,90621.0,D61,,39.955409,-75.40172
24,824484153,LIBERTY SALUKI CLUB INC,% SUSAN MEIER,604 KNEEDLER RD,NORTH WALES,PA,19454-4108,0,4,3,3000,201804,2,0,0,1,1,201812.0,1,1,2,0,1,3946.0,7314.0,,D20,,40.220905,-75.289356
25,521057735,PEMBROKE WELSH CORGI CLUB OF THE POTOMAC INC,% SHAWN MICHAEL,17 MIDDLE GRN,LANCASTER,PA,17602-1573,0,4,3,3000,200603,2,0,284000000,1,1,201812.0,3,3,1,0,12,69464.0,67472.0,67472.0,D60,,40.019361,-76.244548
26,251678330,WESTERN RESERVE FISH & GAME PROTECTIVE ASSOCIATION,,PO BOX 104,CLARK,PA,16113-0104,0,4,3,3000,200110,2,0,0,5,1,201812.0,4,5,1,0,12,212594.0,737419.0,50292.0,D30,,41.286567,-80.423727
27,232597694,KRUISIN KANINES OF PERKASIE INC,,1920 FAWN LN,QUAKERTOWN,PA,18951-2695,0,4,3,1000,200108,2,0,0,1,1,201812.0,3,3,1,0,12,53443.0,92789.0,92789.0,D60,,40.414436,-75.364632
28,232210748,BUCKS COUNTY KENNEL CLUB INC,% LYDIA A HEISE CPA EA,435 JUNIPER ST,WARMINSTER,PA,18974-4722,0,4,3,1000,200807,2,0,998000000,1,1,201812.0,3,3,1,0,12,64599.0,81178.0,81178.0,D20,,40.198584,-75.097268
29,060986624,CLUMBER SPANIEL CLUB OF AMERICA INC,% BENJAMIN T HOYLE,212 LIMESTONE LN,WILLOW GROVE,PA,19090-1609,0,4,3,1000,201011,2,0,0,1,1,201812.0,3,3,1,0,12,37919.0,63173.0,63173.0,D60,,40.146715,-75.103111
30,912138880,KEYSTONE AGILITY CLUB,% THOMAS P FORD,5245 MCLEAN STATION RD,GREEN LANE,PA,18054-2143,0,4,3,3000,200104,2,0,0,1,1,201812.0,1,4,1,0,12,8143.0,120903.0,120903.0,D61,,40.357062,-75.470253
31,260132359,SPLASH N DASH K9 SPORTS INC,% DEBRA M BANACH,260 SEWICKLEY OAKMONT RD,PITTSBURGH,PA,15237-1850,0,4,3,1000,200607,2,0,0,1,1,201812.0,4,3,1,0,12,104082.0,94974.0,94974.0,D61,,40.543753,-80.04374
32,030592952,MARVIN S SPIVAK AND MARIE D SPIVAK FOUNDATION,% RICHARD N BELTZNER ESQ,3 N MAIN ST,TOPTON,PA,19562-1517,0,3,3,1000,200908,1,4,0,1,1,201712.0,1,1,0,1,12,156.0,1500.0,,D12,,40.503385,-75.701548
33,454172595,FOR THE LOVE OF ANIMALS SANCTUARY INC,,649 STOPPER RD,WILLIAMSPORT,PA,17702-8260,0,3,3,4000,201508,1,4,0,1,1,201812.0,2,3,0,1,12,12878.0,35197.0,,D20,,41.16667,-77.136543
34,233042868,NORTH AMERICAN TECKEL CLUB,,9621 BACHELOR RD,KUTZTOWN,PA,19530-8570,0,3,3,1200,201608,1,4,0,5,1,201612.0,1,1,0,1,12,6884.0,5799.0,,D61,,40.590704,-75.718824
35,811369665,BEULAH LAND DOG RESCUE,% AMY SHEPLER,97 BLAUCH LANE,FREDERICKSBURG,PA,17026-0000,0,3,3,1240,201604,1,4,0,1,1,201812.0,3,2,0,1,12,96398.0,16074.0,,D20,,40.482842,-76.479447
36,467324131,HAROLD AND JUDY MCKONLY FAMILY FOUNDATION,% JUDY MCKONLY,322 CHERRY ST,COLUMBIA,PA,17512-1419,0,3,3,1000,201407,1,4,0,1,1,201812.0,8,8,0,1,12,20668737.0,22611908.0,,D99,JUDY MCKONLY TTEE,40.031207,-76.500951
37,455499420,WRIGHT ANIMAL FOUNDATION,,3247 WIMMER ROAD,BETHLEHEM,PA,18020-3300,0,3,3,1000,201401,1,4,0,1,1,201812.0,1,1,0,1,12,2468.0,223.0,,D20,,40.653211,-75.336383
38,261667674,JIM KEEFERS ALL GODS CREATURES,% JAMES F KEEFER,2760 BLAIR ST,MONTOURSVILLE,PA,17754-9552,0,3,3,1000,200809,1,4,0,1,1,201812.0,2,3,0,1,12,11734.0,76146.0,,D20,,41.256467,-76.946339
39,471925517,K-9S OF POLICE SERVICES INC,,903 VALLEY ST,ENOLA,PA,17025-1542,0,3,3,1000,201503,1,4,0,1,25,201712.0,0,1,0,1,12,696.0,1705.0,,D60,,40.301771,-76.947243
40,233088600,Y2K9S DOG SPORTS CLUB INC,,601 DAVISVILLE RD,WILLOW GROVE,PA,19090-1514,0,3,3,1200,200606,1,4,0,1,1,201812.0,4,4,0,1,12,238057.0,372320.0,,D61,,40.150999,-75.106313
41,813205339,DOMINIC DIODATA AND JOAN GABLE FOUNDATION,,308 N MAIN ST STE 400,CHALFONT,PA,18914-2714,0,3,3,4000,201607,1,4,0,1,1,201812.0,3,3,0,1,12,87143.0,71484.0,,D20,,40.291411,-75.213729
42,464785708,JOYCE M ENGLUND CHARITABLE FOUNDATION,% BNY MELLON,PO BOX 185,PITTSBURGH,PA,15230-0185,0,3,3,1000,201407,1,4,0,2,1,201812.0,6,5,0,1,12,1409803.0,613430.0,,D99,,40.434436,-80.024817
43,061660699,LAKSHMI COW SANCTUARY INC,% SANKAR SASTRI,163 POSSINGER DR,STROUDSBURG,PA,18360-0000,0,3,3,1000,200311,1,4,0,1,1,201812.0,6,3,0,1,12,1214640.0,83857.0,,D20,,40.973222,-75.290785
44,236745998,FLORENCE B LYON-ANTIETAM TR UW,% BRANCH BANKING AND TRUST COMPANY,PO BOX 6010,CHAMBERSBURG,PA,17201-6010,0,3,3,1000,200405,1,4,0,1,1,201712.0,5,4,0,1,12,769109.0,409744.0,,D11,,39.93759,-77.6611
45,811095918,AMERICAN COLLEGE OF VETERINARY RADIOLOGY RESEARCH AND EDUCATIONAL,,1057 CREAMERY LN,WEST CHESTER,PA,19382-7501,0,3,3,2800,201608,1,4,0,1,1,201712.0,2,3,0,1,12,24218.0,26081.0,,D12,,39.940298,-75.547058
46,463695231,LOST DOG PROJECT USA,,575 PIERCE ST STE 203,KINGSTON,PA,18704-5700,0,3,3,1000,201405,1,15,0,1,1,201812.0,1,2,2,0,12,25.0,12120.0,12120.0,D99,,41.255768,-75.881915
47,474246101,ONE DOG AT A TIME ODAAT,,225 MEADOW WOODS DR,LEWISTOWN,PA,17044-8208,0,3,3,4000,201507,1,15,0,1,1,201712.0,3,4,1,0,12,30046.0,186134.0,172860.0,D20,,40.583483,-77.638298
48,465008941,YOU TOO ANIMAL RESCUE,,39 MAPLE ACRE LN,DUSHORE,PA,18614-7539,0,3,3,4000,201411,1,15,0,5,1,201812.0,1,3,2,0,12,3108.0,34939.0,34939.0,D20,,41.529809,-76.533118
49,271777640,MIFFLIN CO & JUNIATA CO PET PANTRY,% SUSAN YORKS,28 SHEAFFER LN,RICHFIELD,PA,17086-9627,0,3,3,1000,201101,1,15,0,1,1,201812.0,1,3,1,0,12,5975.0,93860.0,77384.0,D20,,40.460707,-77.37125
50,452973875,RED PAW EMERGENCY RELIEF TEAM,% LORI ALBRIGHT,1328 S 24TH ST,PHILADELPHIA,PA,19146-4013,0,3,3,4000,201204,1,15,0,1,1,201806.0,3,4,1,0,6,56190.0,164500.0,154000.0,D20,,39.935908,-75.184049
51,204444813,ANIMAL LIFELINE,% DENISE M BASH,1111 EASTON RD STE 24,WARRINGTON,PA,18976-1845,0,3,3,1000,200608,1,15,0,1,1,201812.0,4,4,1,0,12,156269.0,273093.0,273093.0,D20,,40.244695,-75.136019
52,273608903,MENDING HEARTS ANIMAL RESCUE INC,% AMY WEBSTER,197 STONEHEDGE RD,HOLLIDAYSBURG,PA,16648-9265,0,3,3,1000,201209,1,15,0,1,1,201812.0,4,4,1,0,12,282973.0,161841.0,161841.0,D20,,40.471142,-78.371286
53,462615497,HAPPY VALLEY ANIMALS IN NEED,,1847 TYRONE PIKE,PHILIPSBURG,PA,16866-8804,0,3,3,4000,201408,1,15,0,1,1,201812.0,1,2,2,0,12,7962.0,11761.0,11761.0,D20,,40.855291,-78.218134
54,251743124,PET ADOPTION LEAGUE AND HUMANE ASSOCIATION,,150 SPRING ST,YUKON,PA,15698-1000,0,3,3,1000,200110,1,15,0,1,1,201812.0,4,4,1,0,12,329157.0,261555.0,259119.0,D20,,40.213107,-79.682747
55,272979942,HOPE FOR HANNAH RESCUE,% SUSAN GILBERT,PO BOX 663,BARTONSVILLE,PA,18321-0663,0,3,3,1000,201008,1,15,0,1,1,201812.0,3,3,1,0,12,30994.0,80103.0,80103.0,D20,,41.00509,-75.27963
56,251847827,WITH A GOLDEN SPIRIT INC,% MICHAEL J DAVIN,12439 ROTH DR,IRWIN,PA,15642-2957,0,3,3,1000,200111,1,15,0,1,1,201812.0,4,3,1,0,12,143188.0,56380.0,56380.0,D20,,40.3205,-79.751469
57,460682739,WEAR WOOF INC,,PO BOX 101556,PITTSBURGH,PA,15237-8556,0,3,3,1000,201404,1,15,0,1,1,201712.0,3,4,1,0,12,31740.0,176715.0,172122.0,D31,,40.549607,-80.043513
58,271943588,LULUS RESCUE,,PO BOX 46,PT PLEASANT,PA,18950-0046,0,3,3,4000,201106,1,15,0,1,1,201812.0,3,4,1,0,12,41683.0,179577.0,179577.0,D20,,40.445221,-75.074432
59,461692172,DOG T A G S,,1 SOUDER COURT,MECHANICSBURG,PA,17050-1501,0,3,3,1000,201407,1,15,0,1,1,201812.0,4,4,1,0,12,366332.0,192360.0,191774.0,D99,,40.285436,-77.053705
60,454390799,ZOES HOUSE INC,% LAKIN HARMON,PO BOX 2372,READING,PA,19608-0372,0,3,3,1000,201208,1,15,0,1,1,201712.0,1,3,2,0,12,9543.0,46947.0,44097.0,D20,,40.310798,-76.034772
61,820747136,PRESERVE CHESTER SPRINGS,% CHRISTINE MCGOWAN,2127 FLOWING SPRINGS RD,CHESTER SPRGS,PA,19425-2646,0,3,3,1400,201705,1,15,0,1,1,201812.0,1,3,2,0,12,8972.0,25795.0,25795.0,D12,,40.12921,-75.635272
62,752976428,DROOPY BASSET HOUND RESCUE OF WESTERN PENNSYLVANIA INC,,15581 STEWART HILL RD,UNION CITY,PA,16438-8128,0,3,3,4000,200405,1,15,0,1,1,201812.0,3,3,2,0,12,26507.0,48269.0,48269.0,D20,,41.974652,-79.791502
63,232751348,GREEN SPRINGS ROD & GUN CLUB INC,% JOHN SHARP,121C GREEN SPRINGS RD,HANOVER,PA,17331-8979,0,3,3,1000,201607,1,15,0,1,1,201712.0,4,3,1,0,12,109483.0,71895.0,71895.0,D30,,39.842704,-77.00334
64,233060911,FIRST STATE GREYHOUND RESCUE INC,% JOHN SELMAN,PO BOX 67,BLANDON,PA,19510-0067,0,3,3,4000,200108,1,15,0,1,1,201712.0,3,2,2,0,12,80808.0,17213.0,17213.0,D20,,40.4412,-75.88687
65,460991759,ROCK RUN ANIMAL RESCUE,% JODI KELLEY,PO BOX 272,NEWVILLE,PA,17241-0272,0,3,3,1000,201402,1,15,0,1,1,201812.0,2,3,2,0,12,13831.0,41138.0,41138.0,D20,,40.173093,-77.421905
66,232675714,LYCOMING ANIMAL PROTECTION SOCIETY INC,,195 PHILIPS PARK DR,SOUTH WILLIAMSPORT,PA,17702-7067,0,3,3,4000,199301,1,15,913994000,1,1,201712.0,5,6,1,0,12,773334.0,1145817.0,829720.0,D20,,41.227403,-77.015571
67,251882926,SOUTHWEST PENNSYLVANIA RETRIVER RESCUE ORGANIZATION,% JOSEPH MARINGO,142 STARK DR,PITTSBURGH,PA,15239-1245,0,3,3,4000,200303,1,15,0,1,1,201812.0,2,3,1,0,12,13869.0,64637.0,63034.0,D20,,40.508026,-79.719066
68,272584855,RABBIT WRANGLERS,,3248 PINEHURST AVE,PITTSBURGH,PA,15216-2310,0,3,3,4000,201009,1,15,0,1,1,201812.0,3,3,1,0,12,28531.0,50821.0,50666.0,D20,,40.388218,-80.039057
69,251774446,CENTRE WILDLIFE CARE,% ROBYN GRABOSKI,PO BOX 572,LEMONT,PA,16851-0572,0,3,3,1000,200402,1,15,0,1,1,201712.0,3,4,1,0,12,33387.0,138465.0,116971.0,D20,,40.808151,-77.812525
70,825308345,PHILLY BULLY TEAM,% JESSICA GRAAF,7157 BRYAN ST,PHILADELPHIA,PA,19119-2405,0,3,3,1000,201811,1,15,0,1,1,201812.0,2,4,1,0,12,17650.0,157757.0,156170.0,D20,,40.058339,-75.191444
71,232768493,WILDLIFE RESCUE,% CAROL SHILLING,PO BOX 71,FRIENDSVILLE,PA,18818-0071,0,3,3,1000,199505,1,15,994355000,5,1,201812.0,1,2,2,0,12,1678.0,15364.0,15364.0,D34,,41.91702,-76.04548
72,233098089,ANIMAL HOUSE PROJECT,% MARYBETH YANNESSA,1055 S HANOVER ST,POTTSTOWN,PA,19465-7525,0,3,3,4000,201203,1,15,0,1,1,201712.0,1,4,1,0,12,2792.0,155011.0,155011.0,D20,,40.228631,-75.655281
73,454442014,SAMS HOPE,% MARIANNE IAQUINTO,901 E WILLOW GROVE AVE STE A,WYNDMOOR,PA,19038-7977,0,3,3,1000,201302,1,15,0,1,1,201812.0,4,4,1,0,12,187003.0,164023.0,164023.0,D20,,40.082083,-75.189138
74,261638324,ANIMALS CANT TALK RESCUE AND ADOPTION INC,,1167 WOODLAND DR,E STROUDSBURG,PA,18301-7170,0,3,3,4000,200807,1,15,0,1,1,201812.0,1,3,1,0,12,7702.0,81203.0,81203.0,D20,,41.116572,-75.394272
75,474320305,JUSTICE FOR ANIMALS,% NATALIE FRISTICK,1761 MCKEES ROCKS RD,MCKEES ROCKS,PA,15136-1607,0,3,3,1400,201603,1,15,0,1,1,201812.0,1,3,2,0,12,4357.0,40437.0,2923.0,D20,,40.469994,-80.089737
76,454462635,MOUNTAINVIEW HORSE RESCUE,% LAURIE BORACCHIA WUCHTER,4508 WINDING RD,NEW TRIPOLI,PA,18066-3334,0,3,3,4000,201402,1,15,0,1,1,201712.0,2,3,1,0,12,13642.0,51513.0,51513.0,D20,,40.629168,-75.734528
77,800498822,SILVER LAKE RESCUE,% LEWIS M ZAGNIT,171 UPPER SILVER LAKE RD,NEWTOWN,PA,18940-1722,0,3,3,4000,201012,1,15,0,1,1,201812.0,1,1,2,0,12,712.0,2738.0,2738.0,D20,,40.23731,-74.906548
78,454380496,DOXIE RESCUE OF BUCKS,% CINDLE JURA,C/O CYNTHIA KURA 181 GILBERT DRIVE,MORRISVILLE,PA,19067-0000,0,3,3,1000,201301,1,15,0,1,1,201612.0,1,4,1,0,12,682.0,188456.0,188456.0,D20,DOXIE RESCUE,40.213508,-74.834685
79,205066437,RESCUE OUR FURRY FRIENDS,% CINDY MCCLELLAN,133 N WALNUT ST,BURNHAM,PA,17009-1636,0,3,3,1000,200806,1,15,0,5,1,201812.0,2,3,1,0,12,11271.0,89906.0,73494.0,D20,,40.634718,-77.567056
80,204573708,WISSAHICKON WATERFOWL PRESERVE,% DAVID FROEHLICH,12 MORRIS RD,AMBLER,PA,19002-5499,0,3,3,1000,200705,1,15,0,1,1,201812.0,4,2,2,0,12,217093.0,11167.0,11167.0,D32,,40.1471,-75.22749
81,474295233,CHAR-WILLS GERMAN SHEPHERD RESCUE,% DIANE L BUHL,PO BOX 132,NEW RINGGOLD,PA,17960-0132,0,3,3,1400,201506,1,15,0,1,1,201712.0,3,4,1,0,12,88666.0,138839.0,132268.0,D20,,40.703416,-75.959812
82,261882045,NEW SPIRIT 4 AUSSIE RESCUE INC,% PAM CALDWELL,211 E MOUNTAIN TOP RD,SUMMIT HILL,PA,18250-1745,0,3,3,1000,200804,1,15,0,1,1,201812.0,4,4,1,0,12,101632.0,116364.0,114409.0,D20,,40.819976,-75.824598
83,464093224,GRAY PAWS SANCTUARY,% GRAY PAWS SANCTUARY,2909 JACKS RUN RD,WHITE OAK,PA,15131-2505,0,3,3,1400,201407,1,15,0,1,1,201812.0,3,3,2,0,12,34327.0,48256.0,43473.0,D20,,40.338436,-79.805604
84,450794827,AMERICAN HERITAGE HORSE RESCUE INC,,1541 GOLF COURSE RD,BIRDSBORO,PA,19508-7982,0,3,3,1000,201107,1,15,0,1,1,201812.0,1,2,2,0,12,609.0,12908.0,12908.0,D20,,40.271506,-75.869046
85,471358668,SAVED ME INC,% HOWARD NELSON,315 MARKET ST,PHILADELPHIA,PA,19106-2115,0,3,3,4000,201408,1,15,0,1,1,201712.0,3,5,1,0,12,56834.0,531692.0,531692.0,D20,,39.950273,-75.145863
86,462750552,FOR THE LOVE OF ALEX INC,% NORMA FETHERMAN,1821 ROSEWOOD DR,BETHLEHEM,PA,18017-3661,0,3,3,1200,201308,1,15,0,1,1,201712.0,4,4,1,0,12,386750.0,183196.0,183196.0,D20,,40.640676,-75.396878
87,472266595,WILD AND FREE FOUNDATION,% MATT BRACKEN,502 W MANOR DR,PITTSBURGH,PA,15238-2350,0,3,3,4000,201508,1,15,0,1,1,201812.0,2,4,1,0,12,23732.0,119421.0,119421.0,D30,,40.51167,-79.879
88,471499271,MOMMY & ME RESCUE,,338 S MARKET ST,SHAMOKIN,PA,17872-6331,0,3,3,4000,201410,1,15,0,1,1,201712.0,3,3,1,0,12,25504.0,89875.0,82415.0,D20,,40.783932,-76.558637
89,204575651,GREEN STREET RESCUE,% KATHLEEN JORDAN,1930 A GREEN STREET,PHILADELPHIA,PA,19130-3579,0,3,3,1000,200607,1,15,0,1,1,201712.0,3,4,1,0,12,65670.0,129691.0,129691.0,D20,,39.964765,-75.169484
90,260447525,HELLO BULLY,% DAISY BALAWEJDER,4885A MCKNIGHT RD SUITE 197,PITTSBURGH,PA,15237-0000,0,3,3,1000,200712,1,15,0,1,1,201812.0,4,4,1,0,12,202206.0,161696.0,106005.0,D20,,40.537638,-80.006761
91,205592729,WAGS RESCUE & REFERRAL,% SANDRA LANGE,PO BOX 1514,SOUTHAMPTON,PA,18966-0835,0,3,3,4000,201708,1,15,0,5,1,201906.0,4,5,1,0,6,113196.0,548387.0,547407.0,D20,,40.186758,-75.007099
92,251847596,SHELTERED LIVES INC,% DOLORES M CUDA,PO BOX 25,TRAFFORD,PA,15085-0025,0,3,3,1000,200009,1,15,0,1,1,201812.0,3,1,2,0,12,67389.0,4936.0,4936.0,D20,,40.38562,-79.75893
93,474326554,WHISKERS WORLD INC,,100 WILLIAM ST,PLAINS,PA,18705-2028,0,3,3,4000,201506,1,15,0,1,1,201712.0,1,3,2,0,12,3029.0,45371.0,45371.0,D20,,41.276921,-75.843007
94,271271134,PAWSIBILITIES ANIMAL RESCUE,% SAMANTHA CARROLL,2048 MAINLAND RD,HARLEYSVILLE,PA,19438-2563,0,3,3,1000,201101,1,15,0,1,1,201712.0,1,4,1,0,12,150.0,146064.0,138456.0,D20,,40.274188,-75.395188
95,611594785,PA BOXERS,% CHRISTINE MCLAIN,PO BOX 826,LANCASTER,PA,17608-0826,0,3,3,4000,200911,1,15,0,1,1,201712.0,2,3,1,0,12,19368.0,78786.0,78786.0,D20,,40.0185,-76.297582
96,251877339,ALLEGHENY ABUSED ANIMAL RELIEF FUND,% JOHN WEINSTEIN,436 GRANT ST STE 108 # 108,PITTSBURGH,PA,15219-2429,0,3,3,4000,201810,1,15,0,1,1,201806.0,3,3,1,0,6,93456.0,87750.0,87750.0,D12,AAARF,40.438807,-79.997192
97,824626250,PATRIOT K9 RESCUE INC,% PAUL C OLDT,122 MURRAY ST,WATSONTOWN,PA,17777-1312,0,3,3,1250,201804,1,15,0,1,1,201812.0,1,2,2,0,12,1629.0,11389.0,7513.0,D20,,41.082073,-76.857398
98,232632175,FARMERS UNION COMPANY FOR THE RECOVERY OF STOLEN HORSES AND,,PO BOX 162,FAIRVIEW VLG,PA,19409-0162,0,3,3,1000,201105,1,15,0,1,1,201812.0,1,1,2,0,12,6972.0,3873.0,3873.0,D20,,40.211896,-75.35586
99,270153653,HOME AT LAST DOG RESCUE INC,,605 CAROLINE DR,NORRISTOWN,PA,19401-3517,0,3,3,4000,200910,1,15,0,1,1,201809.0,4,5,1,0,9,134934.0,877125.0,877125.0,D20,,40.121754,-75.324877
100,352595796,PENNY FIX,,PO BOX 6356,HARRISBURG,PA,17112-0356,0,3,3,4000,201808,1,15,0,1,1,201812.0,1,1,2,0,12,2939.0,3991.0,3991.0,D20,,40.344295,-76.790248
101,251832882,BROOKLINE LABRADOR RETRIEVER RESCUE INC,% MARIE KROUT,PO BOX 638,WARRINGTON,PA,18976-0638,0,3,3,4000,199908,1,15,0,1,1,201812.0,4,4,1,0,12,115376.0,148657.0,147412.0,D20,,40.244807,-75.142587
102,036098664,MOLLYS PLACE,% LORI JOHNSTON,5220 E TRINDLE RD,MECHANICSBURG,PA,17050-3555,0,3,3,1000,200501,1,15,0,1,1,201712.0,3,4,1,0,12,99706.0,403608.0,403608.0,D20,MOLLYS PLACE RESCUE,40.220427,-76.983864
103,260742493,LOLI S PLACE INC,% PAUL MARTURANO,1294 ARBUTUS AVE,LANGHORNE,PA,19047-3134,0,3,3,4000,200801,1,15,0,1,1,201812.0,1,1,2,0,12,520.0,2822.0,2822.0,D20,,40.166186,-74.939371
104,472143893,RAVEN RIDGE WILDLIFE CENTER INC,% TRACIE A YOUNG,PO BOX 38,WASH BORO,PA,17582-0038,0,3,3,1000,201505,1,15,0,1,1,201812.0,3,4,1,0,12,50914.0,129435.0,129435.0,D20,,39.990664,-76.43485
105,270246645,ORPHAN ANGELS,% ORPHAN ANGELS,5439 W LAKE RD,ERIE,PA,16505-2870,0,3,3,1000,201007,1,15,0,1,1,201812.0,4,4,1,0,12,153847.0,234221.0,221821.0,D20,,42.076413,-80.203557
106,770682888,PHILADELPHIA COMMUNITY CATS COUNCIL,% KATHLEEN JORDAN,PO BOX 56191,PHILADELPHIA,PA,19130-6191,0,3,3,1000,200708,1,15,0,1,1,201712.0,1,2,2,0,12,9918.0,13621.0,13621.0,D20,,39.967935,-75.176073
107,800800063,PITTIES LOVE PEACE INC,,950 MILTON GROVE RD N,ELIZABETHTOWN,PA,17022-8485,0,3,3,1000,201305,1,15,0,1,1,201812.0,2,4,1,0,12,22419.0,158795.0,145947.0,D20,,40.191594,-76.547582
108,202042482,PENNSYLVANIA STATE ANIMAL RESPONSE TEAM,% JOEL HERSH,1310 ELMERTON AVE,HARRISBURG,PA,17110-9713,0,3,3,1400,200603,1,15,0,1,1,201812.0,4,4,1,0,12,332940.0,258625.0,258625.0,D20,,40.292958,-76.870386
109,204742209,ROYCES RESCUE,% LINDA SATTERFIELD,73 MOHAWK DR,RICHBORO,PA,18954-1221,0,3,3,1000,200703,1,15,0,1,1,201812.0,1,3,1,0,12,8103.0,60372.0,60372.0,D20,,40.221896,-75.014267
110,800311057,ANIMAL FOOD BANK SERVICES,,PO BOX 4066,BETHLEHEM,PA,18018-0066,0,3,3,1000,200912,1,15,0,1,1,201812.0,4,4,1,0,12,435632.0,433941.0,433941.0,D20,ANIMAL FOOD BANK OF LEHIGH VALLEY,40.625297,-75.379174
111,463623356,DERRY TOWNSHIP COMMUNITY CATS,,PO BOX 976,HERSHEY,PA,17033-0976,0,3,3,4000,201407,1,15,0,1,1,201812.0,2,3,2,0,12,17249.0,26716.0,26716.0,D99,DTCC,40.269748,-76.636357
112,813449985,ERDMAN TROUT CONSERVATION NURSERY INC,% RICHARD WILLIARD,1138 ERDMAN RD,LYKENS,PA,17048-9150,0,3,3,1200,201608,1,15,0,1,1,201812.0,3,3,1,0,12,26851.0,57570.0,3636.0,D33,,40.642343,-76.689445
113,454903629,POTTER COUNTY ANIMAL ASSISTANCE PROJECT,,PO BOX 25,COUDERSPORT,PA,16915-0025,0,3,3,4000,201403,1,15,0,1,1,201812.0,2,3,1,0,12,18105.0,93655.0,93655.0,D20,,41.776165,-77.956692
114,462950458,PAWS N TIME CANINE RESCUE INC,,2220 MANOR RIDGE DR,LANCASTER,PA,17603-4218,0,3,3,1000,201408,1,15,0,1,1,201712.0,1,2,2,0,12,1952.0,17661.0,17609.0,D20,PNTCR,40.035464,-76.364756
115,412076432,CHENOA MANOR,% ROBERT TETI,733 GLEN WILLOW RD,AVONDALE,PA,19311-9524,0,3,3,4000,201511,1,15,0,1,1,201712.0,4,3,1,0,12,124672.0,62038.0,57851.0,D20,,39.841626,-75.784989
116,232889425,FRIENDS OF THE HEINZ WILDLIFE REFUGE AT TINICUM,% JEAN R DIEHL,PO BOX 333,FOLCROFT,PA,19032-0333,0,3,3,1000,199711,1,15,995355350,1,1,201809.0,3,4,1,0,9,63224.0,100816.0,88176.0,D34,FOHR TINICUM,39.895162,-75.278829
117,263991906,CAT HAVEN AND RESCUE MISSION,% LAURA DILIELLO,282 SUMMIT HOUSE,WEST CHESTER,PA,19382-6551,0,3,3,1000,200906,1,15,0,1,1,201812.0,2,2,2,0,12,20100.0,20100.0,20100.0,D20,,39.964882,-75.537471
118,900399788,FORGET ME NOTS INC,% ELLIS ACCOUNTING & TAX SERVICES,871 MOUNT PLEASANT RD,POTTSTOWN,PA,19465-8861,0,3,3,1000,201102,1,15,0,1,1,201812.0,1,1,2,0,12,430.0,105.0,105.0,D20,,40.159689,-75.721024
119,233055373,EAST COAST EXOTIC ANIMAL RESCUE INC,% SUZANNE T MURRAY,320 ZOO RD,FAIRFIELD,PA,17320-9242,0,3,3,1000,200102,1,15,0,1,1,201801.0,4,5,1,0,1,473497.0,681358.0,679949.0,D20,,39.770088,-77.39129
120,208667061,ANIMAL CARE AND ASSISTANCE FUND,% ROBERT A MEEDER,807 CAMP HORNE RD,PITTSBURGH,PA,15237-1207,0,3,3,4000,200706,1,15,0,1,1,201812.0,4,4,1,0,12,374997.0,146952.0,126037.0,D20,,40.521379,-80.076215
121,233007348,PENNSYLVANIA EQUINE FOUNDATION,% BRUCE A RAPPOPORT,7025 PINE RD,HARRISBURG,PA,17112-9644,0,3,3,2000,199909,1,15,0,1,1,201812.0,3,3,1,0,12,64806.0,54740.0,54740.0,D60,,40.394636,-76.781188
122,251875919,WHITE OAK ANIMAL SAFE HAVEN,% WHITE OAK BOROUGH,2295 LINCOLN WAY,WHITE OAK,PA,15131-2407,0,3,3,4000,200105,1,15,0,1,1,201812.0,4,4,1,0,12,193547.0,226541.0,214800.0,D20,,40.331611,-79.800473
123,263430346,NO NONSENSE NEUTERING INC,,218 E MARKET ST,BETHLEHEM,PA,18018-6211,0,3,3,1000,200904,1,15,0,1,1,201812.0,4,6,1,0,12,221881.0,1024113.0,1022831.0,D20,,40.620622,-75.372458
124,465444195,SOUTH HILLS PET RESCUE & REHABILITATION RESORT,% ASHLEY RITTLE,PO BOX 224,MONACA,PA,15061-0224,0,3,3,4000,201501,1,15,0,1,1,201812.0,4,4,1,0,12,181486.0,450233.0,446577.0,D20,,40.68729,-80.27145
125,474795994,FURKID RESCUE INC,,PO BOX 5,SOUTH PARK,PA,15129-0005,0,3,3,1000,201508,1,15,0,1,1,201812.0,2,4,1,0,12,18246.0,102264.0,102090.0,D20,,40.289792,-79.996163
126,262342631,EASTERN PENNSYLVANIA ANIMAL ALLIANCE INC,% GEORGE KITCHEN,PO BOX 123,SCIOTA,PA,18354-0123,0,3,3,1000,200904,1,15,0,1,1,201812.0,4,5,1,0,12,244794.0,593129.0,593129.0,D20,,40.92954,-75.31602
127,821936186,FIGHT FOR PAWS,,510 FARVIEW DR,GREENSBURG,PA,15601-4676,0,3,3,4000,201709,1,15,0,1,1,201712.0,1,1,2,0,12,1154.0,2000.0,2000.0,D20,,40.289871,-79.521684
128,870728506,HEAVENLY PAWS ANIMAL SHELTER INC,% ANGELINE BEHRENDT,3678 ALDINGER RD,SEVEN VALLEYS,PA,17360-8581,0,3,3,1000,200412,1,15,0,1,1,201712.0,3,3,1,0,12,48569.0,90800.0,86519.0,D20,,39.890441,-76.766073
129,205240184,ANIMAL FRIENDS OF WESTMORELAND,% CANDY D NELSON,216 DEPOT ST,YOUNGWOOD,PA,15697-1618,0,3,3,1000,200812,1,15,0,1,1,201712.0,5,5,1,0,12,924036.0,514036.0,468915.0,D20,,40.239913,-79.576945
130,900725213,LOWER PAXTON HAPPY TAILS DOG PARK,% CAROL POTTEIGER,2261 WILLIAMS VIEW DR,HARRISBURG,PA,17112-9125,0,3,3,4000,201212,1,15,0,1,1,201812.0,1,0,2,0,12,657.0,0.0,0.0,D99,,40.361497,-76.802351
131,825378194,JACOBS MANE OF HOPE INC,,236 NEWTOWN RICHBORO RD,RICHBORO,PA,18954-1708,0,3,3,1000,201902,1,15,0,1,1,201812.0,1,2,2,0,12,684.0,10428.0,10428.0,D60,,40.2183,-74.997269
132,364678622,STREET TAILS ANIMAL RESCUE,% LINDSAY CONDEFER,1030 N 2ND ST UNIT 401,PHILADELPHIA,PA,19123-1559,0,3,3,4000,201710,1,15,0,1,1,201509.0,1,3,1,0,9,1527.0,89635.0,89635.0,D20,,39.966949,-75.14019
133,473893047,NINTH LIFE RESCUE CENTER,,312 4TH ST,SUTERSVILLE,PA,15083-1132,0,3,3,1400,201804,1,15,0,1,1,201812.0,1,1,2,0,12,178.0,6851.0,6851.0,D20,,40.23628,-79.804754
134,205828639,CAT NURTURING INFORMATION &PLACEMENT,,PO BOX 284,SPRINGFIELD,PA,19064-0284,0,3,3,1000,200701,1,15,0,1,1,201812.0,3,3,2,0,12,71501.0,48831.0,43118.0,D20,CATNIP,39.931858,-75.341583
135,233072304,BINGO S FOUNDATION LIMITED,% ELEANOR SHAKNITZ,PO BOX 7130,PENNDEL,PA,19047-7130,0,3,3,1000,200202,1,15,0,1,1,201812.0,4,3,1,0,12,248893.0,95051.0,86207.0,D20,,40.152054,-74.916555
136,465275094,SOPHIAS GRACE FOUNDATION,% CORINNE ZOSCAK,1377 NORTHUMBERLAND RD,COATESVILLE,PA,19320-2183,0,3,3,1000,201408,1,15,0,1,1,201812.0,2,3,1,0,12,18674.0,91118.0,91118.0,D99,,40.007864,-75.77377
137,251844057,FOSTERCAT INC,% ALEXA J HOWALD,PO BOX 23414,PITTSBURGH,PA,15222-6414,0,3,3,4000,200001,1,15,0,1,1,201812.0,4,3,1,0,12,238591.0,50862.0,49270.0,D20,,40.447679,-79.993462
138,272709226,FRANKIES FRIENDS CAT RESCUE,,421 9TH ST,NEW KENSINGTN,PA,15068-6405,0,3,3,1000,201109,1,15,0,1,1,201904.0,4,5,1,0,4,125914.0,515857.0,515857.0,D20,,40.565341,-79.766095
139,205926010,FURRY FEET RESCUE INC,% MICHELLE GEYER,771 S COTTONWOOD RD,WALNUTPORT,PA,18088-9558,0,3,3,4000,200702,1,15,0,1,1,201812.0,3,3,1,0,12,66433.0,82040.0,81222.0,D20,,40.768283,-75.489782
140,462146398,BELLA REED PIT BULL RESCUE INC,% MELISSA MARINER,PO BOX 21,SOUTHAMPTON,PA,18966-0021,0,3,3,1400,201406,1,15,0,1,1,201812.0,3,3,1,0,12,35260.0,65536.0,65536.0,D20,,40.186758,-75.007099
141,462197535,PAWS TO HEART RESCUE INC,% KRISTEN N SARMIENTO,3300 NESHAMINY BLVD APT 435,BENSALEM,PA,19020-1773,0,3,3,4000,201405,1,15,0,1,1,201612.0,1,3,2,0,12,1038.0,26297.0,26297.0,D99,,40.144656,-74.935904
142,831219830,4 HOPE ANIMAL SANCTUARY,% JOHN DRIES,4 HOPE DR,COVINGTON TWP,PA,18424-7823,0,3,3,1000,201904,1,15,0,1,1,201812.0,1,1,2,0,12,411.0,5369.0,5369.0,D12,,41.263421,-75.469223
143,251849856,KISKI VALLEY CAT & KITTEN RESCUE,% M RENEE GAZARIK,PO BOX 19,APOLLO,PA,15613-0019,0,3,3,4000,200011,1,15,0,1,1,201712.0,1,3,1,0,12,3612.0,55814.0,55814.0,D20,,40.581455,-79.566433
144,453985637,ANIMAL CARE AND CONTROL TEAM,% BRIAN ABERNATHY,111 W HUNTING PARK AVE,PHILADELPHIA,PA,19140-2717,0,3,3,1000,201208,1,15,0,1,1,201806.0,6,7,1,0,6,1602686.0,5298301.0,5298301.0,D20,,40.013979,-75.12624
145,463379026,PAWSITIVELY POM RESCUE INC,,4950 COUNT ST,HARRISBURG,PA,17109-3226,0,3,3,4000,201405,1,15,0,1,1,201812.0,2,4,1,0,12,23266.0,107412.0,104927.0,D99,,40.299967,-76.806671
146,232931834,LEG UP FARM INC,% LOUIS CASTRIOTA JR,4880 N SHERMAN STREET EXT,MOUNT WOLF,PA,17347-9637,0,3,3,1000,199805,1,15,995031000,1,1,201812.0,8,6,1,0,12,15535748.0,3293988.0,3262516.0,D99,,40.054761,-76.693294
147,593777409,KATHY LABAR ANIMAL FOUNDATION,% KATHRYN LABAR,PO BOX 949,CONYNGHAM,PA,18219-0949,0,3,3,1000,200409,1,15,0,1,1,201812.0,1,1,2,0,12,5149.0,7102.0,7102.0,D20,,40.990662,-76.056358
148,820602489,PROTECTION4PAWS INC,,231 KOLPARK DR,CHAMBERSBURG,PA,17202-3074,0,3,3,4000,201706,1,15,0,1,1,201712.0,2,3,1,0,12,13618.0,86559.0,78449.0,D20,,39.926342,-77.602041
149,202855094,INDRALOKA ANIMAL SANCTUARY,% INDRA LAHIRI,709 CREEK RD,MEHOOPANY,PA,18629-7891,0,3,3,1000,201304,1,15,0,1,1,201712.0,6,6,1,0,12,1100412.0,1663217.0,1663217.0,D20,,41.566819,-76.08915
150,273138601,STRAY CAT RELIEF FUND,% DOLORES POLCE,PO BOX 54845,PHILADELPHIA,PA,19148-0845,0,3,3,1000,201109,1,15,0,1,1,201812.0,2,3,1,0,12,18895.0,81403.0,77233.0,D20,,39.911612,-75.151475
151,821713903,JOEYS PAW INC,,301 BELMONT RD,BUTLER,PA,16001-2154,0,3,3,4000,201708,1,15,0,1,1,201812.0,1,3,1,0,12,4870.0,61850.0,61850.0,D20,,40.876867,-79.892714
152,814300312,SENIOR HEARTS RESCUE AND RENEWAL,,PO BOX 187,BRADFORDWOODS,PA,15015-0187,0,3,3,4000,201611,1,15,0,1,1,201712.0,2,4,1,0,12,18395.0,112401.0,112401.0,D20,,40.63757,-80.08172
153,273981325,GREENMORE FARM ANIMAL RESCUE INC,% JULIA ALTMAN,246 CLONMELL UPLAND RD,WEST GROVE,PA,19390-9016,0,3,3,1000,201106,1,15,0,1,1,201806.0,2,4,1,0,6,13673.0,247476.0,240502.0,D20,,39.882614,-75.822255
154,223597250,SOCIETY FOR THE ADVANCEMENT OF PET PIGS INC,% SUSAN MAGIDSON,PO BOX 498,RUSHLAND,PA,18956-0498,0,3,3,4000,200101,1,15,0,1,1,201812.0,3,4,1,0,12,50870.0,114644.0,107778.0,D20,PIG PLACEMENT NETWORK,40.262783,-75.01568
155,232989313,PET ADOPTION & LIFECARE SOCIETY,,PO BOX 201,BROOMALL,PA,19008-0201,0,3,3,4000,200001,1,15,0,1,1,201806.0,3,4,1,0,6,98611.0,198048.0,135677.0,D20,,39.972965,-75.365635
156,812835262,PARCA INC,,503 SANDY BANK RD,MEDIA,PA,19063-1334,0,3,3,4000,201608,1,15,0,1,1,201812.0,3,3,1,0,12,26859.0,69922.0,46517.0,D12,PARCA,39.934182,-75.382349
157,273698937,BEAGLE RESCUE LEAGUE INC,% CAROLYN STERNER,110 N HARDING AVE,MORRISVILLE,PA,19067-2257,0,3,3,1400,201108,1,15,0,1,1,201812.0,3,3,1,0,12,48406.0,61987.0,61987.0,D20,,40.205414,-74.783567
158,232868927,SAVE THE CATS,% MARNIE A WOLK,2032 BROOKSHIRE RD,FURLONG,PA,18925-1273,0,3,3,4000,200103,1,15,0,1,1,201812.0,4,2,2,0,12,447129.0,22873.0,22873.0,D20,,40.287389,-75.074629
159,813407982,1SIX FOUNDATION,% THOMAS KESTEN,26 REVO RD,PITTSBURGH,PA,15236-1137,0,3,3,1400,201608,1,15,0,1,1,201812.0,1,3,1,0,12,4036.0,73101.0,18402.0,D20,,40.385366,-79.94317
160,462124464,BECKONING CAT PROJECT,,1417 E 3RD ST,WILLIAMSPORT,PA,17701-5402,0,3,3,4000,201309,1,15,0,1,1,201812.0,2,4,1,0,12,11396.0,358781.0,358781.0,D20,,41.249866,-76.978765
161,364698809,PRAIRIE FIRE FARMS FOUNDATION INC,% EMILY TWILLEY-SELVEY,201 ANGLE RD,GRANTVILLE,PA,17028-9260,0,3,3,1200,201308,1,15,0,1,1,201812.0,1,4,1,0,12,7104.0,171226.0,170649.0,D20,,40.401552,-76.647423
162,205621761,DISTINGUISHED DOBERMANS RESCUE,% ANDREA BOWER,215 HARSHAVILLE RD,CLINTON,PA,15026-1417,0,3,3,4000,200810,1,15,0,1,1,201712.0,1,3,1,0,12,8305.0,59679.0,54183.0,D20,,40.547377,-80.430073
163,205810637,CITY KITTIES,% LOUISA ALEXANDER,PO BOX 30851,PHILADELPHIA,PA,19104-0851,0,3,3,1000,200801,1,15,0,1,1,201712.0,3,3,1,0,12,39000.0,54346.0,49466.0,D20,,39.960912,-75.19668
164,451604146,TRUE FRIENDS ANIMAL WELFARE CENTER INC,,16332 STATE ROUTE 706,MONTROSE,PA,18801-6610,0,3,3,1000,201206,1,15,0,1,1,201812.0,6,4,1,0,12,1457769.0,445687.0,411831.0,D20,,41.838629,-75.85522
165,760714463,CATWORKS,% JENNIFER SCHOUTEN,2401 NOBLE ST,WEST LAWN,PA,19609-1660,0,3,3,1000,200211,1,15,0,1,1,201806.0,1,4,1,0,6,2242.0,152040.0,143452.0,D20,,40.327943,-75.996243
166,201441110,POCONO GREYHOUND ADOPTION,% SCOTT EWING,405 IROQUOIS LOOP,CANADENSIS,PA,18325-9734,0,3,3,4000,200501,1,15,0,1,1,201906.0,4,3,1,0,6,158274.0,72643.0,71372.0,D20,,41.175129,-75.208883
167,221837635,ANIMAL CARE FUND,% ANIMAL CARE SANCTUARY,PO BOX A,E SMITHFIELD,PA,18817-0129,0,3,3,4000,201808,1,15,999000000,1,1,201712.0,6,6,0,0,12,4774448.0,2715394.0,,D20,,41.86452,-76.6255
168,010581417,SAVE A YORKIE RESCUE,% TIFFANY RENNINGER,2650 SHILLINGTON RD,READING,PA,19608-1731,0,3,3,1400,200601,1,15,0,1,1,201712.0,4,3,1,0,12,298592.0,65280.0,64822.0,D20,,40.317542,-76.00392
169,473707647,VICTORY THERAPEUTIC HORSEMANSHIP,,603 COOKS HOLLOW RD,TYRONE,PA,16686-8119,0,3,3,1200,201602,1,15,0,1,1,201812.0,4,3,1,0,12,115833.0,69984.0,67672.0,D99,,40.709113,-78.239851
170,830563833,GREY MUZZLE MANOR SANCTUARY INC,% MARCY B TOCKER,57A KUTZ RD,FLEETWOOD,PA,19522-9110,0,3,3,1500,201806,1,15,0,1,1,201712.0,1,2,2,0,12,1497.0,17366.0,17366.0,D20,,40.444415,-75.777718
171,204665013,A TAIL TO TELL INC,% D CINDY MYERS,381 MICHTERS RD,NEWMANSTOWN,PA,17073-8857,0,3,3,4000,200610,1,15,0,1,1,201812.0,4,4,1,0,12,466228.0,213838.0,198172.0,D20,,40.259386,-76.325975
172,342029750,MOSTLY MUTTS INC,% CHERYL HILL,284 LITTLE MOUNTAIN RD,SUNBURY,PA,17801-5534,0,3,3,4000,200503,1,15,0,1,1,201808.0,3,4,1,0,8,86677.0,193800.0,175728.0,D20,,40.786502,-76.756008
173,464647610,ERIE AREA RABBIT SOCIETY & RESCUE E A R S INC,,2316 W 38TH ST,ERIE,PA,16506-4504,0,3,3,4000,201407,1,15,0,1,1,201812.0,4,4,1,0,12,420605.0,142091.0,142091.0,D20,,42.082706,-80.119374
174,461816928,LANCASTER COUNTY SOCIETY FOR THE PREVENTION OF CRUELTY TO ANIMALS,% SUSAN MARTIN,PO BOX 2478,LANCASTER,PA,17608-2478,0,3,3,1000,201303,1,15,0,1,1,201712.0,3,4,1,0,12,26783.0,415368.0,325626.0,D20,LANCASTER SPCA,40.0185,-76.297582
175,453950688,TRI-COUNTY ANIMAL RESCUE CENTER INC,% TREASURER,9562 ROUTE 322,SHIPPENVILLE,PA,16254-8732,0,3,3,1000,201206,1,15,0,1,1,201812.0,3,4,1,0,12,53452.0,124992.0,116224.0,D20,,41.245092,-79.440623
176,204966008,KODIS CLUB INC,% LISA HAUER,230 COWPATH RD,SOUDERTON,PA,18964-2011,0,3,3,1200,200608,1,15,0,1,1,201812.0,1,3,1,0,12,8347.0,99004.0,99004.0,D20,,40.300046,-75.334369
177,464899785,ST CATS & DOGS,% JOANNE DEMUTH-DAVIS,1900 E GIBSON ST,SCRANTON,PA,18510-1955,0,3,3,1000,201407,1,15,0,1,1,201812.0,3,3,1,0,12,39356.0,97665.0,93750.0,D99,,41.405391,-75.64068
178,800507894,PACT,% MELVIN B MILLER,716 BLACK ROCK RD,GLADWYNE,PA,19035-1401,0,3,3,4000,201002,1,15,0,1,1,201812.0,3,4,1,0,12,38135.0,217155.0,217155.0,D20,,40.033563,-75.293431
179,822415267,LANCASTER FARM SANCTUARY,,558 MILTON GROVE RD S,ELIZABETHTOWN,PA,17022-9656,0,3,3,4000,201805,1,15,0,1,1,201904.0,3,3,1,0,4,37599.0,63598.0,63504.0,D20,,40.170322,-76.536516
180,900775925,JUSTICE RESCUE,% RUSSELL HARPER,PO BOX 112,WOODLYN,PA,19094-0112,0,3,3,1200,201804,1,15,0,1,1,201712.0,3,4,1,0,12,99125.0,276922.0,262291.0,D20,,39.876862,-75.346083
181,822314784,1LOVE4ANIMALS INC,,PO BOX 1414,SOUTHEASTERN,PA,19399-1414,0,3,3,1200,201710,1,15,0,1,1,201812.0,3,4,1,0,12,43526.0,487541.0,487541.0,D20,,39.983153,-75.748055
182,451208489,HAND2PAW FOUNDATION,,PO BOX 40122,PHILADELPHIA,PA,19106-0122,0,3,3,1000,201208,1,15,0,1,1,201812.0,3,4,1,0,12,33078.0,116478.0,116478.0,D20,,39.950004,-75.150071
183,251893503,SECOND CHANCE ANIMAL SANCTUARIES INC,% SUSAN COOK,725 GEE RD,TIOGA,PA,16946-8845,0,3,3,4000,200112,1,15,0,1,1,201812.0,4,4,1,0,12,425905.0,113379.0,104693.0,D20,,41.883649,-77.248064
184,203840638,HARNESSED TO HOPE NORTHERN BREED RESCUE INC,%,PO BOX 21125,LEHIGH VALLEY,PA,18002-1125,0,3,3,1000,200610,1,15,0,1,1,201812.0,3,3,2,0,12,69959.0,87874.0,87874.0,D20,,40.665597,-75.426247
185,453852117,BIGGIES BULLIES,% ALLISON STETZ,972 SHADYCREST RD,PITTSBURGH,PA,15216-3024,0,3,3,4000,201203,1,15,0,1,1,201712.0,3,3,1,0,12,36736.0,81373.0,69974.0,D20,,40.42088,-80.02627
186,262472348,BUDDY RESCUE FOUNDATION,,PO BOX 42,LIMEKILN,PA,19535-0042,0,3,3,1000,200906,1,15,0,1,1,201812.0,1,3,2,0,12,2588.0,37016.0,37016.0,D20,,40.34342,-75.80505
187,421569754,PET FRIENDS INC,% BONNIE RASPET,PO BOX 484,IRWIN,PA,15642-0484,0,3,3,1200,200305,1,15,0,1,1,201712.0,3,4,1,0,12,86126.0,126683.0,102911.0,D20,,40.337569,-79.713378
188,454375200,RAISING AID FOR DOGS AT RISK,% RICK L THOMPSON,228 BETHEL DR,LANCASTER,PA,17601-2434,0,3,3,1000,201203,1,15,0,1,1,201812.0,3,4,1,0,12,43538.0,100662.0,100662.0,D20,,40.060734,-76.363669
189,463590505,NEPA PET FUND AND RESCUE,% SHANNON CECCOLI,723 HEMLOCK ST,SCRANTON,PA,18505-2019,0,3,3,1400,201407,1,15,0,1,1,201812.0,1,4,1,0,12,8719.0,116609.0,114749.0,D99,,41.399903,-75.657025
190,451266453,TINY MIRACLES RESCUE,% KIM RUTHERFORD,696 NEW GALENA RD,CHALFONT,PA,18914-1540,0,3,3,1000,201403,1,15,0,1,1,201612.0,3,4,1,0,12,50812.0,102117.0,23167.0,D20,,40.311059,-75.214957
191,232834652,RUTH STEINERT MEMORIAL SOCIETY FOR THE PREVENTION OF CRUELTY TO,% RUTH STEINERT MEMORIAL SPCA,PO BOX 332,SCHUYKL HAVN,PA,17972-0332,0,3,3,1000,201407,1,15,995913000,1,1,201712.0,4,4,1,0,12,272245.0,238812.0,214699.0,D99,ANIMALS,40.63065,-76.17105
192,320318592,READY YOURSELVES YOUTH RANCH INCORPORATED,% MICHELINE BARKLEY,110 PAIGE DR,ROCHESTER,PA,15074-2674,0,3,3,1000,201110,1,15,0,1,1,201806.0,4,4,1,0,6,108623.0,118924.0,113667.0,D20,,40.71881,-80.204126
193,233069063,ANIMAL RESOURCE CENTER,% LINDA BIRD,301A BOONE RD,BLOOMSBURG,PA,17815-8519,0,3,3,4000,200306,1,15,0,1,1,201712.0,5,5,1,0,12,529997.0,574380.0,555169.0,D20,,40.98115,-76.49344
194,232726885,HELPING HANDS FOR ANIMALS,% LINDA GIBSON,965 MAY POST OFFICE RD,STRASBURG,PA,17579-9729,0,3,3,1000,201306,1,15,913000000,1,1,201812.0,4,4,1,0,12,177449.0,115453.0,115453.0,D20,AAP,39.944909,-76.149402
195,232972093,HOMELESS CAT MANAGEMENT TEAM INCORPORATED,% SANDRA ETZEL,PO BOX 100203,PITTSBURGH,PA,15233-0203,0,3,3,2000,200002,1,15,0,1,1,201712.0,4,4,1,0,12,101000.0,101250.0,101250.0,D20,,40.460862,-80.034917
196,364835126,PROJECT MEOW,% CALVARY CENTER FOR CULTURE AND CO,801 S 48TH ST,PHILADELPHIA,PA,19143-3501,0,3,3,1000,201605,1,15,0,1,1,201812.0,2,3,1,0,12,13455.0,79634.0,79634.0,D20,,39.948367,-75.219234
197,870753869,AIREDALE RESCUE AND ADOPTION OF THE DELAWARE VALLEY,% JOEY FINERAN,790 MENGES MILLS RD,SPRING GROVE,PA,17362-9181,0,3,3,4000,200601,1,15,0,1,1,201812.0,4,3,2,0,12,133875.0,34204.0,34204.0,D20,,39.849272,-76.903001
198,260522373,BETTER DAYS ANIMAL LEAGUE,% DENNIS BUMBAUGH,PO BOX 57,SHIPPENSBURG,PA,17257-0057,0,3,3,1000,200801,1,15,0,1,1,201812.0,4,3,1,0,12,345018.0,77564.0,73837.0,D20,,40.070789,-77.45983
199,811807568,PAWS ACROSS PITTSBURGH,,346 ORCHARD ST,SPRINGDALE,PA,15144-1316,0,3,3,1240,201606,1,15,0,1,1,201812.0,3,4,1,0,12,43299.0,223111.0,200835.0,D20,,40.543208,-79.775375
200,272526663,STEELTON COMMUNITY CATS,% MARIA MARCINKO,PO BOX 7618,STEELTON,PA,17113-0618,0,3,3,1000,201305,1,15,0,1,1,201812.0,3,3,1,0,12,61944.0,89977.0,77998.0,D20,,40.235368,-76.841361
201,861136317,ANIMAL FRIENDS OF LANSDOWNE,% FRAN WAYNE,PO BOX 869,LANSDOWNE,PA,19050-0869,0,3,3,1000,200701,1,15,0,1,1,201812.0,4,4,1,0,12,128827.0,131808.0,131808.0,D20,,39.945668,-75.261294
202,454153732,HOPE HAVEN FARM SANCTUARY,% KAREN PHILLIPS,2506 WEXFORD BAYNE RD,SEWICKLEY,PA,15143-8609,0,3,3,1000,201302,1,15,0,1,1,201812.0,4,3,1,0,12,185864.0,70048.0,65939.0,D20,,40.600757,-80.117702
203,050606070,LEHIGH VALLEY ZOOLOGICAL SOCIETY,,5150 GAME PRESERVE RD,SCHNECKSVILLE,PA,18078-3305,0,3,3,1200,200409,1,15,0,1,1,201810.0,6,6,1,0,6,2878826.0,4190597.0,3755191.0,D50,,40.661448,-75.626666
204,475301344,NOAHS ARK RESCUE PROJECT AND SANCTUARY,,36 SAINT ANDREWS LN,GLENMOORE,PA,19343-9509,0,3,3,1400,201603,1,15,0,1,1,201806.0,3,4,1,0,6,59281.0,244727.0,243840.0,D20,,40.111128,-75.704584
205,823923097,FOR THE LOVE OF DOGS RESCUE,,1400 IRISHTOWN RD,NEW OXFORD,PA,17350-8401,0,3,3,4000,201802,1,15,0,1,1,201812.0,2,3,1,0,12,24832.0,73332.0,69321.0,D20,,39.842661,-77.050815
206,264740154,ANIMAL WELFARE SOCIETY OF MONROE,,PO BOX 13,STROUDSBURG,PA,18360-0013,0,3,3,1000,201004,1,15,0,1,1,201712.0,5,6,1,0,12,871394.0,1124080.0,1066260.0,D20,AWSOM,41.041895,-75.368964
207,203727384,THE HUNDRED CAT FOUNDATION INC,% DONNA HERRMANN,PO BOX 10,CENTRE HALL,PA,16828-0010,0,3,3,4000,200605,1,15,0,1,1,201812.0,4,3,2,0,12,100918.0,47829.0,47829.0,D20,,40.807973,-77.703942
208,251810835,BLUEBIRD SOCIETY OF PENNSYLVANIA INC,,PO BOX 756,MECHANICSBURG,PA,17055-0756,0,3,3,2000,199812,1,15,995321350,1,1,201812.0,3,2,2,0,12,51309.0,21755.0,21565.0,D30,,40.182917,-77.004599
209,251881510,FURRY FRIENDS NETWORK,% ROBIN L SCHERER,391 LIMESTONE RD,CARLISLE,PA,17015-4344,0,3,3,4000,200108,1,15,0,1,1,201712.0,4,4,1,0,12,324802.0,257140.0,247759.0,D20,,40.185502,-77.163221
210,201921004,ADOPT A BOXER RESCUE,% DAWN M KARAM,18 HILLCREST DR,DICKSON CITY,PA,18447-1339,0,3,3,4000,200505,1,15,0,1,1,201806.0,4,4,1,0,6,430059.0,264694.0,264694.0,D20,,41.471826,-75.610505
211,472365265,LOGANS HEROES ANIMAL RESCUE,,9411 KINGS HWY,E GREENVILLE,PA,18041-2620,0,3,3,1400,201501,1,15,0,1,1,201806.0,3,4,1,0,6,37136.0,198789.0,180044.0,D20,,40.4336,-75.485633
212,471015815,RDR INC,% THERESA A MORRIS,73 TOWER HILL RD,THOMPSON,PA,18465-9684,0,3,3,4000,201503,1,15,0,1,1,201712.0,1,4,1,0,12,7260.0,149393.0,149393.0,D20,THERESA A MORRIS MBR,41.824779,-75.549619
213,201278410,ANIMAL COALITION OF DELAWARE COUNTY,,3553 WEST CHESTER PIKE,NEWTOWN SQ,PA,19073-3701,0,3,3,4120,200508,1,15,0,1,1,201812.0,3,3,2,0,12,98344.0,43666.0,42166.0,D20,,39.985955,-75.396632
214,200459806,CENTRAL PENNSYLVANIA ANIMAL ALLIANCE,% ZELLA ANDERSON,180 WALDEN WAY,MECHANICSBURG,PA,17050-4105,0,3,3,4000,200405,1,15,0,1,1,201712.0,3,4,1,0,12,57643.0,196194.0,142920.0,D20,,40.238406,-77.019526
215,812837440,BRINDLE BUDDIES & FRIENDS INC,% BRITTENY CHUYKO,PO BOX 39,KUTZTOWN,PA,19530-0039,0,3,3,1245,201607,1,15,0,1,1,201812.0,2,3,1,0,12,11237.0,86781.0,86781.0,D20,,40.53907,-75.781445
216,371569875,HAVEN TO HOME RESCUE,% LAURIE ALLISON,PO BOX 851,BERWICK,PA,18603-0851,0,3,3,4000,200905,1,15,0,1,1,201808.0,3,4,1,0,8,37937.0,121911.0,114856.0,D20,,41.062029,-76.222434
217,814946099,WILDLIFE REHABILITATION SUPPORT OF PA,% MOYA KINNEALEY,648 W PHIL ELLENA ST,PHILADELPHIA,PA,19119-3523,0,3,3,1200,201705,1,15,0,1,1,201812.0,1,3,1,0,12,5912.0,91803.0,90738.0,D12,WRSPA,40.043828,-75.194861
218,200681768,JAGUAR CONSERVATION FUND,% SARA E SHUTE,334 E KING ST,MALVERN,PA,19355-2520,0,3,3,1000,200411,1,15,0,1,1,201712.0,2,4,1,0,12,21342.0,128826.0,128826.0,D20,,40.037345,-75.509383
219,320320314,2ND CHANCE 4 LIFE RESCUE,% LYNN M LEACH,PO BOX 549,ELIZABETHTOWN,PA,17022-0549,0,3,3,4000,201105,1,15,0,1,1,201712.0,3,4,1,0,12,74371.0,156804.0,123726.0,D20,,40.150963,-76.61028
220,753063122,GERMAN SHORTHAIRED POINTER RESCUE PENNSYLVANIA INC,% DEBORAH ORPEN,47 S 14TH ST,PITTSBURGH,PA,15203-1543,0,3,3,4000,200206,1,15,0,1,1,201812.0,3,3,2,0,12,91269.0,45450.0,42236.0,D20,,40.428798,-79.984145
221,202717185,OPERATION SPAY NEUTER INC,% LESLEY BACHMAN,PO BOX 1604,BUTLER,PA,16003-1604,0,3,3,1000,200608,1,15,0,1,1,201812.0,3,3,1,0,12,78087.0,55301.0,52740.0,D40,,40.921145,-79.92758
222,251853565,ANGEL RIDGE ANIMAL RESCUE INC,,390 OLD HICKORY RIDGE RD,WASHINGTON,PA,15301-8619,0,3,3,1000,200112,1,15,0,1,1,201812.0,4,4,1,0,12,241432.0,191141.0,185097.0,D20,,40.234833,-80.259549
223,823052288,LUCKY DAWG ANIMAL RESCUE INC,,2365 STRASBURG RD,COATESVILLE,PA,19320-4338,0,3,3,1000,201711,1,15,0,1,1,201812.0,1,3,1,0,12,8094.0,51472.0,51472.0,D20,,39.950646,-75.821604
224,814970347,FUREVER HOME RESCUE,,1798 TANGLEWOOD RD,ORWIGSBURG,PA,17961-9527,0,3,3,1000,201701,1,15,0,1,1,201812.0,1,2,2,0,12,5490.0,13911.0,13911.0,D99,,40.645043,-76.074949
225,262489504,COMPANIMALS PET RESCUE INC,,335 E KING ST APT 225,MALVERN,PA,19355-2566,0,3,3,2400,201908,1,15,0,1,1,201806.0,1,3,1,0,6,1121.0,52273.0,52273.0,D20,,40.037357,-75.509357
226,262172156,FEATHERED SANCTUARY EXOTIC BIRD RESCUE INC,,1674 KIRKWOOD PIKE,KIRKWOOD,PA,17536-9601,0,3,3,2100,200903,1,15,0,1,1,201712.0,2,3,1,0,12,22815.0,72076.0,72076.0,D32,,39.857628,-76.08002
227,454701712,PET PANTRY OF LANCASTER COUNTY INC,,26 MILLERSVILLE RD,LANCASTER,PA,17603-4249,0,3,3,1000,201208,1,15,0,1,1,201812.0,4,5,1,0,12,442628.0,856152.0,856152.0,D20,,40.039333,-76.364338
228,203094906,PETS COME FIRST INC,,3588 PENNS VALLEY RD,SPRING MILLS,PA,16875-8010,0,3,3,1000,200510,1,15,0,1,1,201712.0,5,4,1,0,12,534482.0,412515.0,348936.0,D20,,40.849572,-77.604067
229,454119892,MONSTER MILERS,% MARY MARIA,916 LEAGUE ST,PHILADELPHIA,PA,19147-3823,0,3,3,1400,201404,1,15,0,1,1,201512.0,3,3,1,0,12,68035.0,54426.0,54426.0,D20,,39.936746,-75.158572
230,271187353,MASTIFFS TO MUTTS,% PEGGY BENOIT,3974 EDENVILLE RD,CHAMBERSBURG,PA,17202-9560,0,3,3,1400,201406,1,15,0,1,1,201810.0,3,4,1,0,10,66757.0,149619.0,149619.0,D20,,39.958638,-77.801274
231,901002278,SAD TAILS OF PA,% STOP,360 WOLFE RUN RD,FREEDOM,PA,15042-9633,0,3,3,1000,201401,1,15,0,1,1,201812.0,3,3,1,0,12,27829.0,55212.0,36178.0,D20,,40.695338,-80.207505
232,251891498,ELK COUNTY HUMANE SOCIETY,% VERONICA CONRAD,1029 E ESCHBACH RD,SAINT MARYS,PA,15857-3147,0,3,3,1000,200110,1,15,0,1,1,201712.0,4,4,1,0,12,392755.0,194066.0,148974.0,D20,,41.420588,-78.523375
233,270811728,GPA THREE RIVERS GREYHOUNDS INC,% SUSY DURSO,PO BOX 101033,PITTSBURGH,PA,15237-8033,0,3,3,1000,201009,1,15,149000000,1,1,201812.0,3,3,1,0,12,27167.0,98754.0,93739.0,D20,THREE RIVERS INC,40.549607,-80.043513
234,263984535,UNLIMITED RAINBOWS ANIMAL HAVEN,% WILLIAM R MENDE,4575 SHIPPEN DAM RD,ELIZABETHVLE,PA,17023-8137,0,3,3,4000,201005,1,15,0,1,1,201812.0,1,2,2,0,12,1146.0,23006.0,23006.0,D20,,40.611948,-76.840294
235,452753841,THE THOROUGHBRED CONNECTION INC,% VICKI L VILCHEK,562 PALMER ADAH RD,ADAH,PA,15410-1144,0,3,3,1000,201403,1,15,0,1,1,201712.0,2,1,2,0,12,23022.0,4179.0,4179.0,D20,,39.936918,-79.912514
236,272849659,OMEGA HORSE RESCUE AND REHABILITATION CENTER INC,,8272 WOODBINE RD,AIRVILLE,PA,17302-8934,0,3,3,4000,201104,1,15,0,1,1,201802.0,4,5,1,0,2,472992.0,566509.0,566509.0,D20,,39.774903,-76.389422
237,812465540,FUREVER YOURS RESCUE INC,,112 SOUTH MAIN STREET,NORTH WALES,PA,19454-2841,0,3,3,1240,201606,1,15,0,1,1,201812.0,3,3,1,0,12,35555.0,86591.0,86591.0,D20,,40.210672,-75.277828
238,262698385,TURNING FOR HOME INC,% BARBARA LUNA,PO BOX 300,BENSALEM,PA,19020-0300,0,3,3,1000,200903,1,15,0,1,1,201712.0,3,5,1,0,12,62903.0,568883.0,552160.0,D20,,40.10455,-74.95128
239,271814860,SUN PETS,,PO BOX 64,LEWISBURG,PA,17837-0064,0,3,3,4000,201008,1,15,0,1,1,201812.0,3,3,1,0,12,40868.0,55182.0,55182.0,D20,,40.969642,-76.948072
240,272756157,SANCTUARY AT HAAFSVILLE,,PO BOX 921,FOGELSVILLE,PA,18051-0921,0,3,3,1000,201009,1,15,0,1,1,201712.0,4,4,1,0,12,428398.0,462281.0,449108.0,D20,,40.599843,-75.663187
241,251649361,LEBANON COUNTY KENNEL CLUB,% TREASURER,1594 CUMBERLAND ST,LEBANON,PA,17042-4532,0,3,3,1200,200206,1,15,0,1,1,201812.0,3,3,1,0,12,71010.0,77604.0,77604.0,D60,,40.339461,-76.422499
242,841641355,BLUE CHIP FARMS INC,% MARGARET BART,974 LOCKVILLE RD,DALLAS,PA,18612-9465,0,3,3,4000,201503,1,15,0,1,1,201712.0,4,4,1,0,12,198632.0,412063.0,397707.0,D20,,41.406512,-75.896614
243,205968213,HOMEWARD BOUND ANIMAL RESCUE,% SUZANNE HOLLENBACH,1420 WELLGATE LN,MECHANICSBURG,PA,17055-6758,0,3,3,4000,200709,1,15,0,1,1,201712.0,2,4,1,0,12,12889.0,223434.0,223434.0,D20,,40.170797,-76.924476
244,822581805,STRAY KITTY FUND,,785 N EDGEWOOD AVE,SOMERSET,PA,15501-1038,0,3,3,1400,201804,1,15,0,5,1,201812.0,1,1,2,0,12,467.0,3208.0,3208.0,D20,,40.015367,-79.080565
245,811750261,ALMOST HOME DOG ADOPTION CENTER,,300 OBIE RD,LEBANON,PA,17042-8873,0,3,3,1000,201605,1,15,0,1,1,201812.0,4,4,1,0,12,317923.0,170000.0,170000.0,D20,,40.27832,-76.338804
246,831623656,MACS FUND,,447 E MOUNT AIRY AVE,PHILADELPHIA,PA,19119-1143,0,3,3,1240,201809,1,15,0,1,1,201812.0,1,1,2,0,12,2700.0,2700.0,2700.0,D20,,40.065788,-75.185317
247,464462533,DOG PARK MOUNT JOY INC,,235 BLOSSOM TRL,MOUNT JOY,PA,17552-2949,0,3,3,1240,201407,1,15,0,1,1,201812.0,1,2,2,0,12,5117.0,23519.0,21513.0,D60,,40.108065,-76.513198
248,455131283,SPERANZA ANIMAL RESCUE INC,% JANINE L GUIDO,1216 BRANDT RD,MECHANICSBURG,PA,17055-9772,0,3,3,4000,201401,1,15,0,1,1,201712.0,4,5,1,0,12,431278.0,633848.0,566105.0,D20,,40.161372,-77.071705
249,824003833,THE@FARMETTE,,5878 STUMP RD,PIPERSVILLE,PA,18947-1092,0,3,3,4000,201802,1,15,0,1,1,201812.0,1,1,2,0,12,1978.0,5124.0,5124.0,D20,,40.404006,-75.124242
250,814068063,DOGS IN BRAZIL INC,% CURTIS JOSEPH WEBER,3944 ECHO LN,GLENVILLE,PA,17329-9283,0,3,3,1000,201610,1,15,0,5,1,201812.0,1,4,1,0,12,3701.0,124030.0,124030.0,D20,,39.778008,-76.863128
251,202925055,AMOS ADVENTURE LIMITED,% ANNMARIA ONEILL,588 MILES RD,GILBERTSVILLE,PA,19525-9627,0,3,3,1000,200806,1,15,0,1,1,201712.0,2,3,1,0,12,21349.0,50647.0,50647.0,D20,,40.31025,-75.570359
252,260163239,PHOENIX ANIMAL RESCUE,% BRUNO LOMBARDO,931 POTTSTOWN PIKE,CHESTER SPRGS,PA,19425-3510,0,3,3,1000,200903,1,15,0,1,1,201812.0,1,3,1,0,12,6269.0,53330.0,53330.0,D30,,40.11089,-75.694587
253,233086025,KITTY COTTAGE ADOPTION CENTER INC,% M ELLEN DIXON,317 W JOHNSON HWY,EAST NORRITON,PA,19401-1992,0,3,3,1000,200107,1,15,0,1,1,201712.0,5,4,1,0,12,504923.0,178019.0,173066.0,D20,,40.132928,-75.330009
254,263862631,PHILADELPHIA ANIMAL WELFARE SOCIETY,% PAWS,100 N 2ND ST,PHILADELPHIA,PA,19106-1902,0,3,3,4000,200903,1,15,0,1,1,201812.0,6,6,1,0,12,2125979.0,3808624.0,3676379.0,D20,PAWS,39.951934,-75.143303
255,823280592,BRIDGE TO HOME ANIMAL RESCUE,% MARY BETH MADALINSKY,PO BOX 985,MCMURRAY,PA,15317-0985,0,3,3,4000,201812,1,15,0,1,1,201812.0,3,4,1,0,12,52193.0,162267.0,154354.0,D20,,40.277848,-80.083943
256,455576740,PITTSBURGH AVIATION ANIMAL RESCUE TEAM,,15 ALLEGHENY COUNTY AIRPORT,WEST MIFFLIN,PA,15122-2674,0,3,3,1000,201311,1,15,0,1,1,201812.0,6,6,1,0,12,1323129.0,1053827.0,717647.0,D20,,40.350467,-79.926934
257,256634951,THE DR LARRY NARDECCHIA SPAY NEUTER TRUST FUND,,131 DAMIAN DR,JOHNSTOWN,PA,15905-1309,0,3,3,4000,199911,1,15,0,2,1,201812.0,3,3,1,0,12,29990.0,88003.0,78961.0,D20,,40.315171,-78.980584
258,262970828,TEACHERS PET RESCUE,% KRISTINE ARBOGAST,19 BLACKBERRY LN,COUDERSPORT,PA,16915-8603,0,3,3,1240,200906,1,15,0,5,1,201812.0,3,3,1,0,12,58215.0,67131.0,67131.0,D20,,41.743311,-77.967927
259,251870229,CLUB PET ADOPTION INC,% DIANNA ESTMAN,20 SCHALLER RD,TRANSFER,PA,16154-2626,0,3,3,4000,200011,1,15,0,1,1,201812.0,4,3,1,0,12,149957.0,89085.0,85714.0,D20,,41.309998,-80.356575
260,261833473,NO KILL LEHIGH VALLEY INC,% DIANE DAVISON,PO BOX 4272,BETHLEHEM,PA,18018-0272,0,3,3,1000,200804,1,15,0,1,1,201812.0,1,3,1,0,12,3225.0,94380.0,94380.0,D20,,40.625297,-75.379174
261,203155644,FORGOTTEN FRIEND INC,% JESSE ROTHACKER,3744 ELIZABETHTOWN RD,MANHEIM,PA,17545-8359,0,3,3,1000,200802,1,15,0,1,1,201712.0,1,3,1,0,12,5492.0,74441.0,74441.0,D30,,40.185431,-76.511499
262,452468853,ANIMAL SNIPETS INC,% RACHEL TAJC,341 ADELAIDE RD,CONNELLSVILLE,PA,15425-6157,0,3,3,1000,201404,1,15,0,1,1,201812.0,1,2,2,0,12,921.0,16853.0,13947.0,D20,,40.038569,-79.624899
263,463479211,MOSTLY MUTTZ RESCUE,,228 HENRY ST,POTTSTOWN,PA,19464-4848,0,3,3,1000,201406,1,15,0,1,1,201712.0,2,4,1,0,12,20976.0,290592.0,288852.0,D99,,40.247692,-75.625548
264,464268607,POOCH KABOOSE INC,,6551 KINDRED ST,PHILADELPHIA,PA,19149-2813,0,3,3,1400,201611,1,15,0,1,1,201612.0,3,3,2,0,12,32841.0,32841.0,32841.0,D20,,40.039788,-75.072977
265,232914530,GOING HOME GREYHOUNDS INC,,PO BOX 513,WEXFORD,PA,15090-0513,0,3,3,1000,200111,1,16,0,1,1,201812.0,4,3,1,0,12,142371.0,56031.0,52623.0,D20,,40.62646,-80.05589
266,201512416,ANNA FOUNDATION INC,% RUTH DELIO,1555 E 10TH ST,ERIE,PA,16511-1712,0,3,3,1000,200507,1,16,0,0,1,201712.0,4,6,1,0,12,136276.0,1423012.0,1423012.0,D20,ASSOC FOR NEEDY & NEGLECTED ANIMALS,42.137648,-80.049802
267,251799497,PET SEARCH,,PO BOX 1653,WASHINGTON,PA,15301-7653,0,3,3,4000,199701,1,16,995913000,1,1,201712.0,4,4,1,0,12,178245.0,213862.0,206967.0,D20,,40.173682,-80.23756
268,300058016,DOGS DEN,% DENISE DURKAY,127 SANJO DR,GRANTVILLE,PA,17028-8682,0,3,3,1000,200208,1,16,0,1,1,201812.0,3,3,2,0,12,59082.0,33288.0,28107.0,D20,,40.361211,-76.672914
269,832679316,MID-SUSQUEHANNA VALLEY KENNEL CLUB INC,,PO BOX 446,SUNBURY,PA,17801-0446,0,3,3,1240,201906,1,16,0,1,1,201812.0,3,2,2,0,12,59113.0,19822.0,19822.0,D99,,40.869766,-76.735577
270,134354828,ANIMAL WELFARE COUNCIL OF THE ALLEGHENIES,,PO BOX 97,WOODLAND,PA,16881-0097,0,3,3,1200,201108,1,16,0,1,1,201812.0,4,5,1,0,12,165155.0,741884.0,730376.0,D20,,41.026792,-78.320258
271,205403519,TREETOPS ANIMAL RESCUE,,305 W STATE ST,KENNETT SQUARE,PA,19348-3052,0,3,3,4000,200611,1,16,0,1,1,201812.0,3,4,1,0,12,35056.0,125008.0,105463.0,D20,,39.846111,-75.714743
272,464923885,CITY OF ELDERLY LOVE,% SAMANTHA JONES,2180 OLD FORTY FOOT RD,HARLEYSVILLE,PA,19438-3019,0,3,3,1000,201409,1,16,0,1,1,201812.0,2,4,1,0,12,20176.0,129025.0,129025.0,D20,,40.234527,-75.37392
273,260544821,AUSTRALIAN CATTLE DOG RESCUEASSOCIATION,% CHRISTY HAMMERMAN,139 MCCLURE RD,CHESWICK,PA,15024-1921,0,3,3,1000,200708,1,16,0,1,1,201812.0,3,4,1,0,12,30075.0,193625.0,186192.0,D20,,40.613566,-79.861623
274,462452075,BEAVER VALLEY POINTER SETTER CLUB,% HNB CPAS,287 PITTSBURGH ROAD,BUTLER,PA,16002-3993,0,3,3,1200,201602,1,16,0,1,1,201712.0,5,3,2,0,12,638569.0,33105.0,33105.0,D61,,40.81203,-79.927517
275,472675775,ANGELS JOURNEY HOME ANIMAL RESCUE,,4531 RT 51 N,BELLEVUE,PA,15012-0000,0,3,3,4000,201504,1,16,0,1,1,201812.0,1,3,1,0,12,800.0,58005.0,58005.0,D20,,40.131599,-79.853909
276,474742739,CENTERVILLE PET RESCUE,% CHRISI AMOUR,237 CENTERVILLE ROAD STE 7,LANCASTER,PA,17603-4008,0,3,3,4000,201711,1,16,0,1,1,201812.0,2,3,1,0,12,15934.0,81677.0,74339.0,D20,,40.048587,-76.393329
277,815275031,CHERISHED CATS RESCUE ALLIANCE INC,% SARAH KLINE,230 MARKET ST STE 1,LEWISBURG,PA,17837-1597,0,3,3,1400,201702,1,16,0,1,1,201812.0,3,3,1,0,12,34096.0,76821.0,76821.0,D20,CHERISHED CATS RESCUE ALLIANCE,40.964913,-76.883967
278,813651499,YOUR PIT BULL AND YOU INC,,10A RIVERHILL,NEW HOPE,PA,18938-1261,0,3,3,1000,201608,1,16,0,1,1,201712.0,1,1,2,0,12,355.0,2048.0,2048.0,D20,,40.360524,-74.960055
279,020703476,ABOVE AND BEYOND ENGLISH SETTER RESCUE,% STACY THOMPSON,60 MOLLEYSTOWN RD,PINE GROVE,PA,17963-8673,0,3,3,1000,200411,1,16,0,1,1,201812.0,2,4,1,0,12,23957.0,311725.0,307922.0,D20,,40.589681,-76.41583
280,815448928,CENTRAL PA HORSE RESCUE,% CONNIE GREENAWALT,100 SPANGLERS RD,LEWISBERRY,PA,17339-8813,0,3,3,4000,201703,1,16,0,1,1,201712.0,3,3,1,0,12,26129.0,71477.0,-89083.0,D20,,40.079401,-76.868786
281,050525739,CANINE RESCUE OF CENTRAL PA INC,% KRISTEN ACRI,PO BOX 129,DILLSBURG,PA,17019-0129,0,3,3,4000,200206,1,16,0,1,1,201712.0,4,4,1,0,12,198344.0,125530.0,84741.0,D20,,40.091217,-76.977835
282,061624968,NATIONAL BRITTANY RESCUE AND ADOPTION NETWORK INC,% LEIGH ANN SOBZACK,94 DEER PATH RD,CLEARFIELD,PA,16830-0000,0,3,3,4000,200111,1,16,0,1,1,201712.0,5,4,1,0,12,535818.0,418524.0,418524.0,D20,,41.021661,-78.416456
283,320261515,UNITED STATES ZOOLOGICAL ASSOCIATION,% JOE SCHREIBVOGEL,6 STEPHEN ST,DILLSBURG,PA,17019-9344,0,3,3,1000,201405,1,16,0,1,1,201812.0,1,1,2,0,12,900.0,3395.0,3395.0,D50,,40.096129,-77.004295
284,473282956,LUCKY YOU ANIMAL RESCUE INC,,304 FORGEDALE RD,BARTO,PA,19504-9134,0,3,3,1000,201505,1,16,0,1,1,201812.0,2,4,1,0,12,24217.0,109522.0,109522.0,D20,,40.423282,-75.635801
285,471479854,LEO S HELPING PAWS INC,,1284 WHEATLAND AVE,LANCASTER,PA,17603-4750,0,3,3,1000,201508,1,16,0,1,1,201812.0,3,4,1,0,12,49199.0,117223.0,104820.0,D12,,40.041569,-76.33816
286,233068855,MAPAW SIBERIAN HUSKY RESCUE AND REFERRAL SERVICE INC,% TONI WELLINGTON,899 DOUGLASS DR,BOYERTOWN,PA,19512-7623,0,3,3,1200,200303,1,16,0,1,1,201712.0,5,3,2,0,12,557189.0,38168.0,38168.0,D20,,40.324635,-75.624492
287,412279676,SOLLY STABLE RIDERS ASSOCIATION,% AILEEN LOGAN,611 BENSON ST,PHILADELPHIA,PA,19111-1930,0,3,3,1000,200807,1,16,0,1,1,201806.0,1,3,1,0,6,4045.0,52071.0,52071.0,D99,,40.079942,-75.076658
288,232865324,RED CREEK WILDLIFE CENTER INC,% PEGGY SUE HENTZ,300 MOONHILL DR,SCHUYKL HAVN,PA,17972-9622,0,3,3,4000,200601,1,16,0,1,1,201712.0,4,4,1,0,12,131733.0,164088.0,162439.0,D30,,40.598849,-76.200761
289,232884554,FAR POINT ANIMAL RESCUE,,1105 RED HILL RD,PORT TREVORTN,PA,17864-9691,0,3,3,4000,200410,1,16,0,1,1,201806.0,3,3,2,0,6,74236.0,44337.0,44337.0,D20,,40.735905,-76.888396
290,823867529,COLUMBIA ANIMAL SHELTER,% MICHAEL L MCKONLY,265 S 10TH ST,COLUMBIA,PA,17512-1627,0,3,3,1000,201903,1,16,0,1,1,201812.0,6,3,2,0,12,1279830.0,26982.0,21483.0,D20,,40.036328,-76.490328
291,232707881,OPERATION SCARLET INC,% RAY A WOLOWNIK,PO BOX 8463,LANCASTER,PA,17604-8463,0,3,3,4000,199901,1,16,0,1,1,201712.0,1,3,1,0,12,5920.0,69781.0,59303.0,D20,,40.065096,-76.335631
292,811070254,TAILS OF HOPE,% DIANE OBRIEN,2450 HOEZLE RD,HERMITAGE,PA,16148-2153,0,3,3,1000,201701,1,16,0,1,1,201712.0,4,4,1,0,12,385988.0,189470.0,189470.0,D20,DEBORAH KOCHEMS,41.200305,-80.470973
293,813216615,TAILS OF THE FREE RESCUE INC,% DAVID MIDDLETON,320 COMMONS DR SUITE 351,PARKESBURG,PA,19365-2154,0,3,3,4000,201607,1,16,0,1,1,201612.0,1,2,2,0,12,3470.0,10496.0,10496.0,D20,,39.824118,-75.784146
294,821086796,GREYHOUND PETS OF AMERICA,% DAVID KOST,1106 REDOAK DR,HARRISON CITY,PA,15636-1607,4102,3,9,1000,198904,1,16,149000000,1,1,201812.0,3,3,1,0,12,40555.0,58987.0,44999.0,D12,VICTORY LAP GREYHOUNDS,40.392273,-79.655182
295,920198499,R A C E FUND INC,% MARLENE MURRAY,8031 RABBIT LN,HARRISBURG,PA,17112-9043,0,3,3,4000,200410,1,16,0,1,1,201812.0,4,3,1,0,12,350085.0,50931.0,48395.0,D20,,40.367976,-76.718266
296,611811882,SECOND CHANCE EQUINE ASSOCIATION,% ALICE MIODUSKI,PO BOX 193,NORVELT,PA,15674-0193,0,3,3,4000,201702,1,16,0,1,1,201812.0,2,2,2,0,12,11074.0,19325.0,18200.0,D20,,40.216006,-79.487239
297,264021472,PERRY COUNTY ANIMAL RESCUE INC,% PAULA CURRENT,507 SUGAR RUN RD,MILLERSTOWN,PA,17062-8745,0,3,3,4000,200908,1,16,0,1,1,201712.0,3,3,1,0,12,71353.0,66321.0,63824.0,D20,,40.511858,-77.222752
298,320446919,PRECIOUS PAWS,% THERESA WELDON,PO BOX 784,FRANKLIN,PA,16323-0784,0,3,3,1200,201410,1,16,0,1,1,201712.0,4,4,1,0,12,134556.0,202096.0,153869.0,D20,PRECIOUS PAWS ANIMAL RESCUE,41.335291,-79.783172
299,471893138,PETS PLUS NATURAL ADOPTION CENTER INC,,151 LINCOLN HWY,FAIRLESS HLS,PA,19030-1012,0,3,3,1000,201608,1,16,0,1,1,201812.0,3,5,1,0,12,94011.0,997496.0,997496.0,D20,,40.181799,-74.864176
300,200027010,NORTHEAST ANIMAL RESCUE,% JAYME BADER,8513 BERGEN PL,PHILADELPHIA,PA,19111-1362,0,3,3,4000,200401,1,16,0,1,1,201812.0,3,3,1,0,12,36987.0,53801.0,53801.0,D20,,40.080078,-75.069906
301,233090459,CAT SHACK INC,% JAKE FOTOPOULOS,PO BOX 950,TREXLERTOWN,PA,18087-0950,0,3,3,1000,200202,1,16,0,1,1,201712.0,4,3,1,0,12,219669.0,51549.0,51549.0,D20,,40.548196,-75.596131
302,251867362,FRIENDS OF ALL ANIMALS,% CAROLL GETTLE,777 N 8TH AVE,LEBANON,PA,17046-8206,0,3,3,4000,200101,1,16,0,1,1,201812.0,4,2,2,0,12,227467.0,21331.0,20733.0,D60,,40.353627,-76.39952
303,813861435,UNLEASHED FOUNDATION,% SHARON PRYOR,22 JENNIFER LN,DILLSBURG,PA,17019-9151,0,3,3,4000,201801,1,16,0,1,1,201808.0,3,3,2,0,8,30284.0,29748.0,29748.0,D20,,40.151032,-77.000381
304,232642331,MUMMASBURG ATHLETIC ASSOCIATION INC,,2501 MUMMASBURG RD,GETTYSBURG,PA,17325-0000,0,3,3,1000,200308,1,16,0,1,1,201712.0,4,3,1,0,12,203999.0,76966.0,41013.0,D20,,39.883376,-77.287706
305,454719031,NOBODYS CATS FOUNDATION,,3909 HARTZDALE DR STE 905,CAMP HILL,PA,17011-7838,0,3,3,4000,201207,1,16,0,1,1,201712.0,3,4,1,0,12,99391.0,311255.0,306462.0,D20,,40.215299,-76.940631
306,800779739,HEALTHY KIDS RUNNING SERIES,,381 BRINTON LAKE RD THE MILL,THORNTON,PA,19373-0000,0,3,3,1200,201304,1,16,0,1,1,201812.0,5,6,1,0,12,540712.0,1886576.0,1881660.0,D50,,39.895794,-75.538223
307,264565984,FINDING SHELTER INC,,1017 W MARSHALL ST,NORRISTOWN,PA,19401-4218,0,3,3,1000,201006,1,16,0,1,1,201812.0,1,4,1,0,12,2429.0,101366.0,97678.0,D20,,40.123272,-75.354276
308,462618710,TO LOVE A CANINE RESCUE INC,% TRACY LONG,PO BOX 422,KIMBERTON,PA,19442-0422,0,3,3,4000,201309,1,16,0,1,1,201712.0,3,4,1,0,12,89806.0,308383.0,306961.0,D20,,40.129517,-75.583145
309,474267195,K-9 CONNECTION INC,% JAMES NEWMAN,1025 BURNLEY CT,BENSALEM,PA,19020-4825,0,3,3,1000,201512,1,16,0,1,1,201712.0,1,1,2,0,12,3684.0,4469.0,4457.0,D20,,40.097657,-74.921663
310,465211440,HOSPAWS INC,% VALERIE HOEGEL,PO BOX 45,YOUNGWOOD,PA,15697-0045,0,3,3,4000,201505,1,16,0,1,1,201712.0,3,3,2,0,12,28885.0,27431.0,27431.0,D20,,40.24035,-79.57671
311,020812649,AMERICAN ACADEMY OF VETERINARY NUTRITION,,721 INVERNESS DR,WEST CHESTER,PA,19380-6880,0,3,3,2000,200708,1,16,0,1,1,201806.0,4,4,1,0,6,139484.0,103784.0,103784.0,D40,,40.014527,-75.549641
312,465119469,LOW COST SPAY NEUTER WASHINGTON COUNTY INC,% MICHELLE BRUCE,18 W PIKE ST,CANONSBURG,PA,15317-1314,0,3,3,1000,201408,1,16,0,1,1,201812.0,4,4,1,0,12,149288.0,164680.0,138691.0,D99,,40.258858,-80.186739
313,474907289,PLEASURE ACRES EQUINE AND FELINE RESCUE CENTER,,149 HORNOCK DR,NEW ALEXANDRI,PA,15670-2734,0,3,3,4000,201510,1,16,0,1,1,201812.0,1,3,1,0,12,500.0,65065.0,63193.0,D20,,40.39391,-79.469147
314,810625675,HAPPY TAILS NO KILL ANIMAL SHELTER,% KAREN FRIEDENBERG,PO BOX 68,TOWANDA,PA,18848-0068,0,3,3,1000,200404,1,16,0,1,1,201812.0,5,3,2,0,12,543998.0,47078.0,47078.0,D20,,41.750908,-76.443274
315,352182828,CAT TALES INC,,PO BOX 165,WARMINSTER,PA,18974-0517,0,3,3,1400,200212,1,16,0,1,1,201812.0,4,3,1,0,12,103223.0,99376.0,99376.0,D20,,40.217062,-75.072803
316,463109278,PA CARING FOR K-9S INC,,PO BOX 356,NEW OXFORD,PA,17350-0356,0,3,3,4000,201503,1,16,0,1,1,201712.0,4,4,1,0,12,201759.0,151152.0,148058.0,D20,,39.881881,-77.077431
317,270470017,PINUPS FOR PITBULLS,,2 S DELMORR AVE STE 501,MORRISVILLE,PA,19067-7164,0,3,3,1000,200909,1,16,0,1,1,201812.0,3,4,1,0,12,32261.0,276643.0,124328.0,D20,,40.209522,-74.772908
318,264386229,THE CROSSINGS ANIMAL SANCTUARY INC,% YVONNE D NEIMAN,1083 TAYLORSVILLE RD,WSHNGTN XING,PA,18977-1319,0,3,3,4000,200909,1,16,0,1,1,201712.0,1,3,2,0,12,8872.0,29929.0,29680.0,D20,,40.286388,-74.874994
319,251103494,STRAYHAVEN ANIMAL SHELTER INC,,94 DONATION RD,GREENVILLE,PA,16125-9772,0,3,3,4000,201011,1,16,0,1,1,201712.0,4,4,1,0,12,443631.0,108441.0,98529.0,D20,,41.405474,-80.35928
320,812524735,TRRAC INC,% NINA LYMAN,1799 POCOPSON RD,WEST CHESTER,PA,19382-7074,0,3,3,1240,201703,1,16,0,1,1,201812.0,1,3,1,0,12,943.0,80585.0,80585.0,D20,,39.885973,-75.632071
321,030477527,STEEL CITY GREYHOUNDS INC,% DAVID ANDERSON,6890 5TH AVE,PITTSBURGH,PA,15208-2307,0,3,3,1000,200302,1,16,149000000,1,1,201812.0,1,2,2,0,12,8359.0,23121.0,23121.0,D20,,40.456974,-79.909233
322,320160415,AMERICAN BULLDOG RESCUE INC,% JODI SPECTER,373 WASHINGTON CROSSING RD,NEWTOWN,PA,18940-1612,0,3,3,1000,200608,1,16,0,1,1,201812.0,1,3,1,0,12,7467.0,93702.0,93702.0,D20,JODI SPECTER,40.240815,-74.935718
323,233052370,LAMANCHA,% DRUSILLA CAMPBELL,PO BOX 656,UNIONVILLE,PA,19375-0656,0,3,3,1000,200101,1,16,0,1,1,201812.0,3,4,1,0,12,54918.0,252193.0,252193.0,D20,,39.900459,-75.740472
324,611739660,HARLEYS HAVEN DOG RESCUE,% ELIZABETH MEHAFFEY,1419 N RIDGE RD,PERKASIE,PA,18944-2222,0,3,3,1200,201408,1,16,0,1,1,201812.0,3,4,1,0,12,40134.0,170319.0,170319.0,D99,,40.393027,-75.276676
325,233036697,WILLING HEARTS DAL RESCUE INC,,PO BOX 11,ROYERSFORD,PA,19468-0011,0,3,3,4000,201603,1,16,0,1,1,201812.0,1,3,2,0,12,7633.0,41345.0,41345.0,D20,,40.18427,-75.53796
326,465049955,INTERNATIONAL VETERINARY ULTRASOUND SOCIETY,,PO BOX 524,BIRDSBORO,PA,19508-0524,0,3,3,1000,201604,1,16,0,5,1,201812.0,3,3,1,0,12,84695.0,79165.0,79165.0,D99,IVUSS,40.26454,-75.80409
327,273193234,FUREVER HOME ADOPTION CENTER,% MARY JO MEINZER,5984 MAIN ST,EAST PETERSBURG,PA,17520-1549,0,3,3,1000,201012,1,16,0,1,1,201812.0,3,3,1,0,12,35392.0,60447.0,54484.0,D20,FUREVERHOME,40.099385,-76.353878
328,141929926,HUMANE SOCIETY OF LEBANON COUNTY THRIFT SHOP,,129 CUMBERLAND ST,LEBANON,PA,17042-5447,0,3,3,1000,200608,1,17,0,1,1,201905.0,4,4,1,0,5,169546.0,297298.0,278973.0,D11,,40.340195,-76.4138
329,832175806,FIX N WAG N INC,% THEO NELSON,526 MCELHENY RD,GLENSHAW,PA,15116-1948,0,3,3,1400,201909,1,3,0,1,1,,0,0,0,1,12,,,,D20,,40.528046,-79.974686
330,842450540,JERRYS 3-LEGACY FOUNDATION,% ROBYN COLAJEZZI,1006 BARTRAM LN,QUAKERTOWN,PA,18951-5013,0,3,3,1000,201908,1,4,0,1,1,,0,0,0,1,7,,,,D12,,40.426632,-75.356793
331,814827020,HOUND HAVEN OF LONE PINE INC,% BRANDY J ELLERMAN,592 LONE PINE RD,WASHINGTON,PA,15301-7114,0,3,3,1400,201808,1,4,0,1,1,,0,0,0,1,12,,,,D20,,40.074369,-80.172858
332,825253356,RADIANT ANIMAL RESCUE,,433 ENRIGHT CT,PITTSBURGH,PA,15206-3203,0,3,3,1000,201805,1,4,0,1,1,,0,0,0,1,12,,,,D20,,40.461216,-79.917401
333,833284392,ANGEL WINGS KITTY SANCTUARY,% DEBBIE LEARN ALCHON,103 FIELDS CT,LANDENBERG,PA,19350-1382,0,3,3,4000,201903,1,4,0,1,1,,0,0,0,1,12,,,,D20,,39.778037,-75.762248
334,823446910,ZOO TO THE RESCUE INC,,4600 JONESTOWN RD,HARRISBURG,PA,17109-6214,0,3,3,2400,201807,1,4,0,1,1,,0,0,0,1,12,,,,D20,,40.301465,-76.8146
335,842550189,EAST COAST BULLDOG RESCUE,,214 HORNING RD,BETHEL PARK,PA,15102-3016,0,3,3,1400,201909,1,4,0,1,1,,0,0,0,1,6,,,,D20,,40.345061,-80.024007
336,841809832,WILLARD FAMILY CHARITABLE FOUNDATION,% JOHN BROOKS WILLARD,PO BOX 7,CLEARVILLE,PA,15535-0007,0,3,3,1000,201907,1,4,0,2,1,,0,0,0,1,12,,,,D99,,39.839294,-78.469881
337,821015704,THE JUNCTION CAT RESCUE,,145 PATRIOT CIR,MOUNTAIN TOP,PA,18707-2038,0,3,3,4000,201801,1,4,0,1,1,,0,0,0,1,12,,,,D20,,41.141397,-75.914887
338,251724015,ERIE AQUARIUM SOCIETY,% TAMI RYAN,PO BOX 8025,ERIE,PA,16505-0025,0,3,3,2000,201808,1,4,0,5,1,,0,0,0,1,12,,,,D60,,42.110857,-80.153383
339,830823840,ANIMALS AMERICA INC,,10 FREEPORT RD,PITTSTON,PA,18640-9586,0,3,3,1000,201907,1,4,0,1,1,,0,0,0,1,12,,,,D20,,41.321464,-75.723594
340,833253908,SHELTERING HEARTS INC,% MEGAN ERDLEY,117 MEADOW GREEN DR,MIFFLINBURG,PA,17844-9301,0,3,3,1000,201903,1,4,0,1,1,,0,0,0,1,12,,,,D12,,40.92373,-77.03089
341,831159588,LULUS LITTLE LIONS CAT RESCUE,,501 8TH ST,CHARLEROI,PA,15022-1951,0,3,3,1000,201808,1,4,0,5,1,,0,0,0,1,12,,,,D20,LULUS LITTLE LIONS,40.140153,-79.90232
342,831852052,FURADELPHIA FRIENDS FOUNDATION,% NANCY ILENE KUSS,1237 LAURA LN,NORTH WALES,PA,19454-3664,0,3,3,1400,201810,1,4,0,1,1,,0,0,0,1,12,,,,D20,,40.205859,-75.24611
343,824876257,MAKING ANIMALS SMILE AGAIN INC,,1247 E COLUMBIA AVE APT 4,PHILADELPHIA,PA,19125-3910,0,3,3,4000,201804,1,4,0,1,1,,0,0,0,1,12,,,,D20,MAKING ANIMALS SMILE AGAIN,39.9712,-75.130902
344,843094966,MORNING STAR BEEKEEPING,,PO BOX 476,FAIRFIELD,PA,17320-0476,0,3,3,1000,201910,1,4,0,1,1,,0,0,0,1,12,,,,D60,,39.780789,-77.361859
345,833307047,HOMELESS TO HOME HUSKY RESCUE,% JOHN SCHAEFFER,7728 SENECA RIDGE DR,YORK,PA,17403-9493,0,3,3,2400,201907,1,4,0,1,1,,0,0,0,1,12,,,,D20,,39.873623,-76.705043
346,821966682,MISFITS DOG RESCUE,,1653 RUANE AVE,SCRANTON,PA,18508-1731,0,3,3,1240,201808,1,4,0,1,1,,0,0,0,1,12,,,,D20,CASSANDRA M GROSHEK SOLE MBR,41.443553,-75.676245
347,833570029,NAVARRO FOUNDATION,% ROCCO NAVARRO,PO BOX 2363,WEST CHESTER,PA,19380-0112,0,3,3,1400,201908,1,4,0,1,1,,0,0,0,1,12,,,,D12,,39.980107,-75.610503
348,833051363,TEAM GABE DOGGIE REHAB FOUNDATION,,654 OLD QUAKER RD,LEWISBERRY,PA,17339-9705,0,3,3,1000,201905,1,4,0,1,1,,0,0,0,1,12,,,,D99,,40.153923,-76.873768
349,352265081,CHRISTIAN FAITH MINISTRIES,% TERRY BAUGHN,PO BOX 4015,JIM THORPE,PA,18229-0415,0,3,3,7000,200606,1,10,0,5,1,,0,0,6,0,12,,,,D20,,40.87592,-75.73241
350,824278941,PURPLE DOG RESCUE,,5223 SIMPSON FERRY RD,MECHANICSBURG,PA,17050-3549,0,3,3,1400,201802,1,15,0,1,1,,0,0,2,0,12,,,,D20,,40.218056,-76.980785
351,824420355,SHENANGO VALLEY ANIMAL SHELTER,% DUANE PICCIRILLI,2599 BROADWAY RD,HERMITAGE,PA,16148-9013,0,3,3,1400,201903,1,15,0,1,1,,0,0,1,0,12,,,,D20,,41.186897,-80.452077
352,357244212,JACOB MEMORIAL CHARITABLE TR,% PAULA JEAN PONTE DVM,PO BOX 484,GREEN LANE,PA,18054-0484,0,3,3,1400,201910,1,15,0,2,1,,0,0,2,0,12,,,,D20,PAULA JEAN PONTE DVM TTEE,40.33677,-75.46907
353,833797458,PAWSITIVE CONNECTIONS INC,,PO BOX 968,HOPWOOD,PA,15445-0968,0,3,3,1000,201909,1,15,0,1,1,,0,0,2,0,12,,,,D12,,39.876835,-79.671812
354,232929784,DONEGAL FISH AND CONSERVATION ASSOCIATION,,79 SHARON DRIVE,MOUNT JOY,PA,17552-0000,0,3,3,1000,201904,1,15,0,1,1,,0,0,2,0,12,,,,D33,,40.097828,-76.515608
355,824879316,FLOWERING A CHANGE,,404 N SEVERGN DR,EXTON,PA,19341-1574,0,3,3,1000,201805,1,15,0,1,1,,0,0,2,0,12,,,,D30,,40.05122,-75.659515
356,832969231,SOMEONE SPECIAL DOG RESCUE,% CASSIE L DILLINGER,1512 7TH AVENUE FL 2,BEAVER FALLS,PA,15010-4120,0,3,3,1240,201907,1,15,0,1,1,,0,0,2,0,12,,,,D20,,40.756083,-80.319351
357,813593982,A DOGS PLACE RESCUE,% LISA SHERMAN,28 SCHOOL LANE APT 1A,ARDMORE,PA,19003-1313,0,3,3,1000,201810,1,15,0,1,1,,0,0,2,0,12,,,,D20,,40.006457,-75.294175
358,834533970,NICOLINAS WISHES CHARITABLE FOUNDATION,,3140 BRODHEAD ROAD,ALIQUIPPA,PA,15001-1353,0,3,3,1245,201907,1,15,0,1,1,,0,0,2,0,12,,,,D12,,40.588873,-80.261473
359,814120333,TWIST OF FATE FARM AND SANCTUARY,% ASHLEY DIFELICE,322 VALLEY RD,WEST GROVE,PA,19390-9440,0,3,3,1000,201802,1,15,0,1,1,,0,0,1,0,12,,,,D20,,39.813745,-75.845959
360,842476090,4 PAWS SAKE PA,,685 CHERRY ST,MILTON,PA,17847-1521,0,3,3,1240,201908,1,15,0,5,1,,0,0,2,0,12,,,,D20,,41.01383,-76.855364
361,823554934,PIGSBURGH SQUEALERS RESCUE,,130 LAMPUS LN,TARENTUM,PA,15084-3216,0,3,3,1240,201808,1,15,0,1,1,,0,0,1,0,12,,,,D20,PIGSBURGH SQUEALERS RESCUE,40.618047,-79.783767
362,832084170,MY CAT BARKS FOUNDATION INC,% FATIMA MCDUFFIE,5156 PARRISH ST,PHILADELPHIA,PA,19139-1534,0,3,3,1000,201902,1,15,0,1,1,,0,0,2,0,12,,,,D20,,39.966667,-75.223694
363,833573562,PAWZABILITIES PA,,256 SPRINGDALE TER,YARDLEY,PA,19067-3421,0,3,3,1400,201903,1,15,0,1,1,,0,0,2,0,12,,,,D12,,40.212249,-74.812861
364,834101800,BLEU HEART PROJECT,% KATEE CLIVER,316 E SPRUCE ST,PERKASIE,PA,18944-1227,0,3,3,1000,201907,1,15,0,1,1,,0,0,2,0,12,,,,D20,,40.364545,-75.290977
365,825358857,BRILLIANT SHEPHERDS,% JOEL DENTON,12 QUAIL DR,DOYLESTOWN,PA,18901-2639,0,3,3,1200,201808,1,15,0,1,1,,0,0,2,0,12,,,,D61,,40.279277,-75.167915
366,834513046,PINK DOG ANIMAL RESCUE,% HOLLY COLLINS,830 PINE GROVE RD,HANOVER,PA,17331-9011,0,3,3,1400,201910,1,15,0,1,1,,0,0,2,0,12,,,,D20,,39.74069,-77.014653
367,823774041,PHILADELPHIA METRO WILDLIFE CENTER,,2815 TOWNSHIP LINE RD,NORRISTOWN,PA,19403-4608,0,3,3,1200,201808,1,15,0,1,1,,0,0,1,0,12,,,,D30,,40.175481,-75.354604
368,825113117,A&S HORSE AND ANIMAL SANCTUARY,,5883 MAST RD,NARVON,PA,17555-9610,0,3,3,4000,201903,1,15,0,1,1,,0,0,1,0,12,,,,D20,,40.08853,-75.972565
369,834368909,2 MUTTS LOVE,% HEIDI KAY THOMAS,328 BRIDGE ST,TREMONT,PA,17981-1404,0,3,3,5000,201904,1,15,0,1,1,,0,0,2,0,6,,,,D20,,40.631198,-76.392213
370,814683160,JUSTINS FOUNDATION FOR KINDNESS,% MELISSA J FALVO,15 RED OAK DR,COATESVILLE,PA,19320-1261,0,3,3,1000,201902,1,15,0,1,1,,0,0,2,0,12,,,,D20,,40.030753,-75.813197
371,830956359,CHARLIE & FRIENDS NONPROFIT CORPORATION,% KRISTA N AMIGH,1000 CREEKVIEW CIR APT 1216,CRANBERRY TWP,PA,16066-1110,0,3,3,2400,201903,1,15,0,1,1,,0,0,2,0,12,,,,D12,,40.68357,-80.126472
372,824314814,PROJECT PAW PRINTS,,835 ADDISON ST,WASHINGTON,PA,15301-5605,0,3,3,1400,201802,1,15,0,5,1,,0,0,2,0,12,,,,D20,PROJECT PAW PRINTS,40.170613,-80.26434
373,833405958,DIRE STRAITS PAWS RESCUE TEAM INC,,56 W GEORGIANNA DR,RICHBORO,PA,18954-1310,0,3,3,4000,201905,1,15,0,1,1,,0,0,2,0,12,,,,D20,,40.199567,-75.000817
374,831176482,DANDH FURREVER HOMES INC,% DEIDRE HERRINGTON,300 BLAKER RIDGE RD,WAYNESBURG,PA,15370-3516,0,3,3,1240,201905,1,15,0,1,1,,0,0,2,0,12,,,,D20,,39.858201,-80.073471
375,822694874,LOVEABLE FERALS,,4603 MAGELLAN DR,WALNUTPORT,PA,18088-9373,0,3,3,1240,201711,1,15,0,1,1,,0,0,2,0,12,,,,D20,,40.732031,-75.562844
376,842228371,LIFESAVING INITIATIVE FUNDING EFFORTS,% MARGARET JACKSON,1851 BLAIR ST,PHILADELPHIA,PA,19125-2413,0,3,3,1000,201909,1,15,0,1,1,,0,0,2,0,12,,,,D20,LIFE,39.978208,-75.131523
377,831530827,I AM WILD FOUNDATION INC,% PHILLIP D CAPUTO,995 CREAMERY RD,NEWTOWN,PA,18940-2907,0,3,3,1000,201903,1,15,0,1,1,,0,0,1,0,12,,,,D11,,40.278239,-74.929788
378,815174195,BIG THREE RESCUE INC,,155 STRONEGATE DRIVE,LANDENBERG,PA,19350-0000,0,3,3,4000,201706,1,15,0,1,1,,0,0,2,0,12,,,,D20,,39.771506,-75.799761
379,822164114,HILL KITTIES INC,,973 HILLDALE RD,HOLTWOOD,PA,17532-9619,0,3,3,1400,201709,1,15,0,1,1,,0,0,2,0,12,,,,D20,,39.850014,-76.304803
380,833497456,TERRAPIN NESTING PROJECT A NJ NONPROFIT CORPORATION,% KATHERINE LACEY,2910 MADISON AVE,ABINGTON,PA,19001-4012,0,3,3,1000,201908,1,15,0,1,1,,0,0,2,0,12,,,,D99,TERRAPIN NESTING PROJECT,40.12979,-75.148446
381,824389919,SPRINT FOR SERVICE DOGS,% JUDITH SUSSMAN,PO BOX 761,CLARKS SUMMIT,PA,18411-0761,0,3,3,1800,201803,1,15,0,1,1,,0,0,2,0,10,,,,D12,,41.463694,-75.681992
382,842394142,TO BEE DETERMINED,,PO BOX 87,WAVERLY,PA,18471-0087,0,3,3,1000,201908,1,15,0,1,1,,0,0,2,0,12,,,,D30,,41.523812,-75.690608
383,821456058,CAT AID NETWORK,,125 MAPLE AVENUE EXT,BLAIRSVILLE,PA,15717-7936,0,3,3,1240,201808,1,15,0,1,1,,0,0,2,0,12,,,,D20,,40.440439,-79.2391
384,842725651,COVER SIX CANINES INC,% GEORGE MATHEIS JR,2550 PINE GROVE RD,YORK,PA,17403-5132,0,3,3,1200,201908,1,15,0,1,1,,0,0,2,0,12,,,,D99,,39.912003,-76.70689
385,842287445,DIBS FOR DOGS INC,% DONNA R CAMPBELL,55 CAVENDISH DR,AMBLER,PA,19002-4963,0,3,3,1000,201908,1,15,0,1,1,,0,0,2,0,12,,,,D99,,40.161857,-75.211231
386,833374757,ANIMAL ASSISTANCE PROGRAM,,319 4TH ST,E PENNSBORO,PA,17025-1658,0,3,3,1000,201908,1,15,0,1,1,,0,0,2,0,12,,,,D12,,40.30225,-76.949013
387,823445472,LEVER FOUNDATION INC,% NICK COONEY,242 ELIZABETH DR,LANCASTER,PA,17601-4342,0,3,3,1000,201807,1,15,0,1,1,,0,0,1,0,12,,,,D20,,40.062324,-76.300772
388,815213176,JOANS HELPING PAWS INC,,531 BROADWAY ST,SCRANTON,PA,18505-1006,0,3,3,1200,201703,1,15,0,1,1,,0,0,2,0,12,,,,D40,,41.405629,-75.675432
389,833459633,HAPPY TAILS RESCUE RETIREMENT HOME,,145 W MAPLE AVE,MORRISVILLE,PA,19067-6644,0,3,3,4000,201903,1,15,0,5,1,,0,0,2,0,12,,,,D60,,40.214129,-74.784743
390,842154528,KALIS MISSION,% CHARLOTTE OR GARY PARKS,306 WILLIAM ST,TOWANDA,PA,18848-2010,0,3,3,4000,201909,1,15,0,5,1,,0,0,2,0,12,,,,D99,,41.963389,-75.74311
391,831215308,GHANDIS REFUGE ANIMAL RESCUE,% STEPHANIE M JANKOWSKI,106 HARMIL RD,BROOMALL,PA,19008-1248,0,3,3,1000,201807,1,15,0,1,1,,0,0,2,0,12,,,,D20,,39.980042,-75.37205
392,815029263,RUFF LIFE RESCUE & REHABILITATION INC,% CHRISTINE CAHILL,2148 AMLISA RD,NAZARETH,PA,18064-8714,0,3,3,4000,201802,1,15,0,1,1,,0,0,2,0,12,,,,D20,,40.767295,-75.364938
393,832883708,HUNTERS SANCTUARY FOR PAWS,% CHANEL DIXON,501 E FAIRVIEW ST,COOPERSBURG,PA,18036-1516,0,3,3,1400,201906,1,15,0,1,1,,0,0,2,0,12,,,,D20,,40.51422,-75.388035
394,474446374,FLYING CHANGES EQUINE RESCUE,,540 BULLCREEK RD,BUTLER,PA,16002-0918,0,3,3,1400,201903,1,16,0,1,1,,0,0,2,0,12,,,,D20,,40.803186,-79.866102
395,842284064,PA CARING HEARTS,% ELIZABETH MARIE JONES,656 YORKSHIRE DR,BREINIGSVILLE,PA,18031-1551,0,3,3,1000,201909,1,16,0,1,1,,0,0,2,0,7,,,,D20,,40.547491,-75.625933
396,821608450,KATHIES KRITTERS,,PO BOX 286,MCKEES ROCKS,PA,15136-0286,0,3,3,1240,201706,1,16,0,1,1,,0,0,2,0,12,,,,D60,,40.465624,-80.065611
397,842831455,KITTY CONDO,% DONALD STILLEY,136 BELMONT AVE,NORRISTOWN,PA,19403-1679,0,3,3,1400,201910,1,16,0,1,1,,0,0,2,0,12,,,,D20,,40.140251,-75.398967
398,833738520,KINDRED SPIRITS RESCUE RANCH,% LISA MARIE SOPKO,500 HODGSON RD,DARLINGTON,PA,16115-1518,0,3,3,1200,201904,1,16,0,1,1,,0,0,2,0,12,,,,D20,,40.776819,-80.468249
399,842388558,FOOD FOR FURRY FRIENDS INC,% NEIL FOGARTY,113 VANDER RD,WEXFORD,PA,15090-7446,0,3,3,1000,201908,1,16,0,1,1,,0,0,2,0,12,,,,D20,,40.648861,-80.086026
400,842308678,THERAPEUTIC USE OF PET & ANIMAL COMPANIONS,,33 S 22ND ST,POTTSVILLE,PA,17901-3103,0,3,3,1000,201907,1,16,0,1,1,,0,0,2,0,12,,,,D99,,40.67345,-76.224767
401,832759216,PITBULL ADVOCATES OF ARMSTRONG COUNTY,,172 PAINTER RD,TEMPLETON,PA,16259-1210,0,3,3,1240,201903,1,16,0,1,1,,0,0,2,0,12,,,,D20,PITBULL ADVOCATES OF ARMSTRONG CO,40.869421,-79.477272
402,832848140,FUR-EEDOM ANIMAL RESCUE INC,,114 S 2ND ST,CLEARFIELD,PA,16830-2302,0,3,3,1400,201904,1,16,0,1,1,,0,0,2,0,12,,,,D20,,41.020675,-78.437996
403,843295535,PURRFECT PAWS CAT RESCUE SBCF,,206 E LOGAN AVE,DUBOIS,PA,15801-3132,0,3,3,1400,201910,1,16,0,1,1,,0,0,2,0,12,,,,D20,,41.132194,-78.751976
404,834256890,HERE WITH US FARM SANCTUARY,,3397 TUNNEL HILL RD,SEVEN VALLEYS,PA,17360-8584,0,3,3,1400,201906,1,16,0,5,1,,0,0,2,0,12,,,,D20,,39.787558,-76.722042
405,842704647,SANDYS HOUR INC,% MONIQUE THOMPSON,196 WHITE PINE TRL,E STROUDSBURG,PA,18301-7924,0,3,3,1450,201908,1,16,0,1,1,,0,0,2,0,12,,,,D20,,41.042546,-75.275548
406,900201271,QUALITY DEER MANAGEMENT ASSOCIATION,% RICK WATTS,502 W SIDDONSBURG RD,DILLSBURG,PA,17019-9559,3927,3,9,2100,200212,1,16,0,5,1,,0,0,2,0,12,,,,D30,MASON DIXON BRANCH,40.137117,-76.990911
407,834665930,PHILLY GOAT PROJECT INC,% KAREN KRIVIT,518 NARBERTH AVE,MERION STA,PA,19066-1314,0,3,3,1000,201908,1,16,0,1,1,,0,0,2,0,12,,,,D99,,40.000746,-75.258012
408,901186878,QUALITY DEER MANAGEMENT ASSOCIATION,% ANTHONY DOYLE,243 ORCHARD ST,BAIRDFORD,PA,15006-0000,3927,3,9,2100,200212,1,16,0,5,1,,0,0,1,0,12,,,,D30,STEEL CITY BRANCH,40.632162,-79.875599
409,820624180,VISION RESTORE NATURE,,45 MEDIA LINE RD - B 8,BROOMALL,PA,19008-1240,0,3,3,1248,201704,1,16,0,1,1,,0,0,2,0,12,,,,D30,,39.981048,-75.382258
410,814655009,SLIMY SCALY TAILY REPTILE RESCUE,% CRYSTAL SNYDER,123 GREEN ST APT B,SOUDERTON,PA,18964-1705,0,3,3,4000,201806,1,16,0,1,1,,0,0,2,0,12,,,,D20,,40.309762,-75.327499
411,815305088,CAT RANGERS RESCUE GROUP,,PO BOX 132,ACME,PA,15610-0132,0,3,3,1400,201702,1,16,0,1,1,,0,0,2,0,12,,,,D20,,40.120149,-79.405069
412,825299087,PENNSYLVANIA STATE WORKING ANIMAL FOUNDATION,% ROBIN LAUVER,210 ANDERSONTOWN RD,MECHANICSBURG,PA,17055-6023,0,3,3,1240,201805,1,16,0,1,1,,0,0,1,0,12,,,,D99,,40.151739,-76.932209
413,831220384,BABUSHKA S ANIMAL RESCUE LIMITED,,33 LAMBERTS LN,COATESVILLE,PA,19320-1975,0,3,3,4000,201808,1,16,0,1,1,,0,0,2,0,12,,,,D20,,39.996283,-75.852887
414,830800204,FOUNDATION FOR THEM,% JESSICA MOORE,3361 MIOLA RD,CLARION,PA,16214-6917,0,3,3,4000,201808,1,16,0,1,1,,0,0,2,0,12,,,,D20,,41.249758,-79.347562
415,821399948,WHO RESCUED WHO HUMANE SOCIETY,,430 N STATE ST,CLAIRTON,PA,15025-2174,0,3,3,4000,201705,1,16,0,1,1,,0,0,2,0,12,,,,D20,,40.307934,-79.887983
416,834568601,CATS IN BLOOM,% JOY MCGINNIS,519 CEMETERY RD,BERWICK,PA,18603-5527,0,3,3,4000,201908,1,16,0,1,1,,0,0,2,0,12,,,,D20,,41.065916,-76.270592
417,832474302,IN STABLE HANDS INC,,512 LIME LN,GREENSBURG,PA,15601-8633,0,3,3,2000,201901,1,16,0,1,1,,0,0,2,0,12,,,,D99,,40.435005,-79.525227
418,832759760,TAMING GRACIE CORPORATION,% DENISE VIGNOLA,250 S OAK ST,MOUNT CARMEL,PA,17851-2148,0,3,3,1000,201902,1,16,0,1,1,,0,0,2,0,12,,,,D20,,40.794185,-76.412531
419,831713505,NOAHS ARK EDUCATIONAL ZOO,% LOREN MCCUTCHEON,9 BECK RD,QUAKERTOWN,PA,18951-4725,0,3,3,1240,201903,1,16,0,1,1,,0,0,2,0,12,,,,D20,,40.467457,-75.302258
420,834089416,LOCAL WHISKERS INC,% LAURA HOLLOWAY,352 CASSIDY WAY,SHREWSBURY,PA,17361-1100,0,3,3,1000,201904,1,16,0,1,1,,0,0,2,0,3,,,,D20,,39.782119,-76.681032
421,800132723,QUALITY DEER MANAGEMENT ASSOCIATION,% RICK WATTS,502 W SIDDONSBURG RD,DILLSBURG,PA,17019-9559,3927,3,9,2100,200212,1,16,0,5,1,,0,0,2,0,12,,,,D30,PA STATE CHAPTER,40.137117,-76.990911
422,824737276,WOOFINGTON DOG PARK,,22045 ROUTE 6,WARREN,PA,16365-7952,0,3,3,2400,201807,1,16,0,1,1,,0,0,2,0,12,,,,D99,,41.850709,-79.148882
423,825211196,SUKHA GOMUKHA FUND,% WILLIAM H MEAD,PO BOX 127,HOLMES,PA,19043-0127,0,3,3,1400,201808,1,16,0,1,1,,0,0,2,0,12,,,,D99,,39.899562,-75.307731
424,900745919,QUALITY DEER MANAGEMENT ASSOCIATION,% JASON BECK,1501 JONES ST,MONESSEN,PA,15062-1924,3927,3,9,2100,200212,1,16,0,5,1,,0,0,2,0,12,,,,D30,PA NATIONAL PIKE BRANCH,40.14629,-79.88893
425,824223963,CROSS YOUR PAWS RESCUE INC,% LISA DUFFY,4012 W LAKE DR,IRWIN,PA,15642-5036,0,3,3,1000,201804,1,16,0,1,1,,0,0,1,0,2,,,,D20,,40.307345,-79.66647
426,834147604,RINGTOWN SCENTRAL DOG PARK,% STAN PIASKOWSKI,480 W APPLE ST,RINGTOWN,PA,17967-9444,0,3,3,1400,201905,1,16,0,1,1,,0,0,2,0,12,,,,D99,,40.85602,-76.241469
427,201111679,SEA-BAR STABLES & EQUINE RESCUE,% BARBARA L YEDINAK,PO BOX 391,GRANTVILLE,PA,17028-0391,0,3,3,4100,200504,1,14,0,1,1,201512.0,0,0,2,0,12,0.0,0.0,0.0,D20,,40.373438,-76.682667
428,364643094,CONSOLIDATED SPORTSMEN OF MUNCY CREEKS,% ARTHUR FRY,1201 TULE ST,MONTOURSVILLE,PA,17754-1129,0,5,3,1000,200906,2,0,0,1,1,201812.0,0,0,2,0,12,0.0,0.0,0.0,D33,,41.260567,-76.910742
429,256065134,WEBSTER BEAGLE CLUB,,PO BOX 774,BELLE VERNON,PA,15012-0774,0,4,3,3000,201212,2,0,65207298,1,1,201812.0,0,0,2,0,12,0.0,0.0,0.0,D60,,40.129239,-79.868102
430,260051911,LEHIGH VALLEY DREAM WEAVERS AGILITY CLUB,% PAT WOTRING,3139 SEIPLES STATION RD,WHITEHALL,PA,18052-3325,0,7,3,1000,201301,2,0,0,1,1,201812.0,0,0,2,0,12,0.0,0.0,0.0,D61,,40.643844,-75.518805
431,465419793,ELEPHANT PROTECTION ASSOCIATION,% ROBERT A MITCHELL,PO BOX 1043,DOYLESTOWN,PA,18901-0017,0,4,3,1000,201407,2,0,0,5,1,201712.0,0,0,2,0,12,0.0,0.0,0.0,D61,,40.31011,-75.12989
432,251696870,GOLDEN TRIANGLE IRISH SETTER CLUB INC,% DEBORAH M LAWRENCE,1210 LANE AVE,NATRONA HTS,PA,15065-1324,0,4,3,1000,200812,2,0,0,1,1,201812.0,0,0,2,0,12,0.0,0.0,0.0,D60,,40.62479,-79.729877
433,522373949,TRAINED N TALENTED CANINES,% SUZANNE WHITE,1 TAIL RACE DR,MT HOLLY SPGS,PA,17065-1404,0,7,3,1000,200610,2,0,0,5,1,201812.0,0,0,2,0,12,0.0,0.0,0.0,D61,,40.110633,-77.193872
434,824348548,POACHINGFACTS,,1439 QUILTERS CT,CHAMBERSBURG,PA,17202-4708,0,4,3,3000,201902,2,0,0,1,1,201812.0,0,0,2,0,12,0.0,0.0,0.0,D30,,39.912236,-77.611642
435,201652689,CATAHOULA OWNERS BREEDERS AND RESEARCH ASSOCIATION,% SUZANNE WHITE,1 TAIL RACE DR,MT HOLLY SPGS,PA,17065-1404,0,7,3,1000,200512,2,0,0,1,1,201812.0,0,0,2,0,12,0.0,0.0,0.0,D60,,40.110633,-77.193872
436,202167021,AMERICAN POLISH LOWLAND SHEEPDOG CLUB,% MAGDA HIRATA,500 WYNDMOOR AVE,WYNDMOOR,PA,19038-8431,0,7,3,1000,200506,2,0,0,1,1,201812.0,0,0,2,0,12,0.0,0.0,0.0,D20,,40.077143,-75.195829
437,251455621,OIL CREEK BEAGLE CLUB,% STANLEY HEPLER,3340 STATE ROUTE 417,FRANKLIN,PA,16323-7626,0,7,3,1000,200201,2,0,0,1,1,201812.0,0,0,2,0,12,0.0,0.0,0.0,D60,,41.493806,-79.795155
438,521973973,ANTIETAM CREEK SAMOYED CLUB INC,% JANICE HOVELMANN TREASURER,280 CHURCH RD,ORRTANNA,PA,17353-9502,0,7,3,1000,199904,2,0,998000000,1,1,201801.0,0,0,2,0,1,0.0,0.0,0.0,D60,,39.901843,-77.416293
439,251684242,PENNS WOODS POINTING DOG TRAINERS INC,% LYNN WOOD,PO BOX 7,APOLLO,PA,15613-0007,0,4,3,3000,200402,2,0,0,1,1,201906.0,0,0,2,0,6,0.0,0.0,0.0,D60,,40.581455,-79.566433
440,814152712,STEINS HOLLOW BEAGLE CLUB INC,% JAMES D REYNOLDS,259 E DEER VIEW DR,AUBURN,PA,17922-8922,0,7,3,1000,201709,2,0,0,1,1,201812.0,0,0,2,0,12,0.0,0.0,0.0,D60,,40.581772,-76.097329
441,232653037,INTERSTATE SHETLAND SHEEPDOG CLUB OF PENNSYLVANIA SOUTHERN NEW JERSE,% BERNADETTE BIASI,4106 BARBERRY DR,LAFAYETTE HL,PA,19444-1202,0,7,3,1000,200109,2,0,0,1,1,201812.0,0,0,2,0,12,0.0,0.0,0.0,D60,,40.097644,-75.252396
442,461040318,AMERICAN EEL SUSTAINABILITY ASSOCIATION INC,% DOUGLAS HUNTLEY,PO BOX 252,NORRISTOWN,PA,19404-0252,0,6,3,2000,201406,2,0,0,1,1,201712.0,0,0,2,0,12,0.0,0.0,0.0,D99,,40.211896,-75.35586
443,236297625,CARLISLE BEAGLE CLUB INC,% JOHN CABLE,175 BEAGLE CLUB ROAD,CARLISLE,PA,17013-0000,0,7,3,1000,201109,2,0,317000000,1,1,201809.0,0,0,2,0,9,0.0,0.0,0.0,D20,,40.261433,-77.144603
444,821218579,FRENCH CREEK BARN HUNT ASSOCIATION,% MARY HOUSHOLDER,121 N FRONT ST,FRANKLIN,PA,16323-2707,0,7,3,1000,201810,2,0,0,1,1,201812.0,0,0,2,0,12,0.0,0.0,0.0,D60,,41.413409,-79.824103
445,251804791,TRI-COMMUNITY ANGLERS ASSOCIATION,% TIM SCHUMANN,PO BOX 846,LARGE,PA,15025-0846,0,4,3,3000,199907,2,0,0,5,1,201712.0,0,0,2,0,12,0.0,0.0,0.0,D33,,40.299237,-79.961995
446,232790478,SAUCON VALLEY BOXER CLUB,% JAMES T SABLE,4212 ENDERS WAY,DOYLESTOWN,PA,18902-5641,0,7,3,1000,200006,2,0,0,1,1,201812.0,0,0,2,0,12,0.0,0.0,0.0,D60,,40.336156,-75.107054
447,237325223,IMPERIAL BEAGLE CLUB,% LOUIS A PROSPERI,694 BEAGLE CLUB RD,MCDONALD,PA,15057-0000,0,7,3,1000,201601,2,0,0,1,1,201812.0,0,0,2,0,12,0.0,0.0,0.0,D60,,40.401988,-80.269538
448,251755787,YOUGH AREA FISHERMANS ASSOCIATION INC,% RONALD L CALIGUIRE,600 WINGROVE RD,SCOTTDALE,PA,15683-2451,0,7,3,1000,200708,2,0,0,1,1,201812.0,0,0,2,0,12,0.0,0.0,0.0,D33,,40.092967,-79.502848
449,300467549,ENGLISH TOY SPANIEL CLUB OF WESTERN PENNSYLVANIA,% JANE NAIMARK,4024 PIN OAK CT,MURRYSVILLE,PA,15668-9799,0,7,3,1000,201101,2,0,0,1,1,201812.0,0,0,2,0,12,0.0,0.0,0.0,D60,,40.453747,-79.694022
450,204399757,BIEWER TERRIER CLUB OF AMERICA,% MYRNA TORRES,2323 SR 72,JONESTOWN,PA,17038-8413,0,7,3,1000,201007,2,0,0,1,1,201812.0,0,0,2,0,12,0.0,0.0,0.0,D61,,40.401329,-76.492044
451,251307450,BUTLER COUNTY KENNEL CLUB,% SUE CHAPIN,641 KIESTER RD,SLIPPERY ROCK,PA,16057-3823,0,7,3,1000,200811,2,0,0,1,1,201812.0,0,0,2,0,12,0.0,0.0,0.0,D60,,41.050329,-79.998768
452,251785641,PERSONALIZED GREYHOUNDS INC,% PATRICIA RICHARDSON,765 FISHING CREEK RD,NEW CUMBERLND,PA,17070-2749,0,3,3,4000,200708,1,15,0,1,1,201812.0,0,0,2,0,12,0.0,0.0,0.0,D20,,40.181877,-76.873291
453,815072956,PEG AND FRANKS HOME FOR WAYWARD FELINES,,2308 MARGARET ST,PITTSBURGH,PA,15235-2421,0,3,3,4000,201707,1,15,0,1,1,201812.0,0,0,2,0,12,0.0,0.0,0.0,D20,,40.492256,-79.78646
454,320267659,PET MATCH,% PAMELA HOEBECK,13 THOMAS JEFFERSON CT,IRWIN,PA,15642-8814,0,3,3,4000,201105,1,15,0,1,1,201812.0,0,0,2,0,12,0.0,0.0,0.0,D20,,40.361869,-79.686959
455,141921164,CAT CRITTERS,% MARSHA HUBER,209 PENNSYLVANIA AVE,PROSPECT PARK,PA,19076-1724,0,3,3,4000,201405,1,15,0,1,1,201812.0,0,0,2,0,12,0.0,0.0,0.0,D20,,39.879976,-75.301068
456,832550455,ANGEL EYES FARM INC,% DEBORAH BOWERS,848 ROUTE 989,FREEDOM,PA,15042-9351,0,3,3,1400,201906,1,15,0,1,1,201812.0,0,0,2,0,12,0.0,0.0,0.0,D20,,40.698484,-80.188773
457,264012512,CATS TWILIGHT,,1262 STATE ROUTE 711,STAHLSTOWN,PA,15687-1299,0,3,3,4000,201002,1,15,0,1,1,201812.0,0,0,2,0,12,0.0,0.0,0.0,D20,,40.132434,-79.360697
458,461376261,CHAZZ FOUNDATION INC,% PATRICIA MACCABE,118 RANSBERRY AVE,E STROUDSBURG,PA,18301-2619,0,3,3,4000,201302,1,15,0,1,1,201812.0,0,0,2,0,12,0.0,0.0,0.0,D20,,40.997846,-75.176881
459,823526588,HOPES DREAM RESCUE & SANCTUARY INC,,121 BULLIT RUN RD,HOWARD,PA,16841-2723,0,3,3,1240,201804,1,15,0,1,1,201812.0,0,0,2,0,12,0.0,0.0,0.0,D20,,40.991878,-77.717553
460,202695521,SAFE CAT NETWORK INC,% TRACIE NUCERA,PO BOX 24,VIRGINVILLE,PA,19564-0024,0,3,3,1240,200601,1,15,0,1,1,201812.0,0,0,2,0,12,0.0,0.0,0.0,D20,,40.52398,-75.87298
461,451284897,WOODYS PLACE - SENIOR GERMAN SHEPHERD SANCTUARY,% DAWN MIMNAUGH,183 HEMLOCK GROVE RD,GREENTOWN,PA,18426-9525,0,3,3,1000,201201,1,15,0,1,1,201812.0,0,0,2,0,12,0.0,0.0,0.0,D20,,41.311016,-75.304251
462,814380275,UVS CARES FOUNDATION,% MARK C FAURIE,4004 FREDRICKSBURG CT,EXPORT,PA,15632-9207,0,3,3,1000,201705,1,15,0,1,1,201612.0,0,0,2,0,12,0.0,0.0,0.0,D40,,40.439925,-79.640137
463,208472032,ITTY BITTY KITTY INC,% KATHRYN L KUZO,878 MINESITE RD,ALLENTOWN,PA,18103-9206,0,3,3,4000,200705,1,15,0,1,1,201712.0,0,0,2,0,12,0.0,0.0,0.0,D20,,40.566174,-75.550457
464,815282742,BELLABONS PET RECOVERY SERVICES,,119 FAIRGROUND ST,MUNCY,PA,17756-8205,0,3,3,1000,201702,1,15,0,1,1,201812.0,0,0,2,0,12,0.0,0.0,0.0,D20,,41.206789,-76.775167
465,383866978,ARTHURS PET PANTRY,% ABIGAIL ERDLEY,1020 FONDA RD,MILTON,PA,17847-7819,0,3,3,1000,201503,1,15,0,1,1,201812.0,0,0,2,0,12,0.0,0.0,0.0,D99,,41.020132,-76.83551
466,821368299,HELP FIND SOPHIE,% HELP FIND SOPHIE,PO BOX 165,DENVER,PA,17517-0165,0,3,3,1240,201706,1,15,0,1,1,201904.0,0,0,2,0,4,0.0,0.0,0.0,D20,,40.23315,-76.13717
467,010857865,NONLETHAL OPTIONS FOR ANIMALS INC,% NONLETHAL OPTIONS FOR ANIMALS,536 DUPONT ST,PHILA,PA,19128-2612,0,3,3,4000,200605,1,15,0,1,1,201812.0,0,0,2,0,12,0.0,0.0,0.0,D30,,40.035149,-75.215696
468,261885340,PENNSYLVANIA GREAT DANE RESCUE,% TERRI PREISEL,2450 EASTBROOK RD,NEW CASTLE,PA,16105-6514,0,3,3,1000,200804,1,15,0,1,1,201812.0,0,0,2,0,12,0.0,0.0,0.0,D20,,41.042134,-80.275648
469,252595048,PENNSYLVANIA EQUINE RESCUE AND RETIREMENT FOUNDATION,% KIMBERLY A CANNON,1818 POLK ST,ALIQUIPPA,PA,15001-2034,0,3,3,7000,201007,1,15,0,5,1,201707.0,0,0,2,0,7,0.0,0.0,0.0,D20,,40.611652,-80.2765
470,272098622,HOME AGAIN ANIMAL SHELTER,,73 GRANT AVE,ETNA,PA,15223-1879,0,3,3,1000,201105,1,15,0,1,1,201512.0,0,0,2,0,12,0.0,0.0,0.0,D20,,40.505569,-79.950211
471,202691557,WEBBED FOOT WILDLIFE REHABILITATION CLINIC,% MICHELE GOODMAN,876 BROWER RD,WAYNE,PA,19087-2208,0,3,3,1000,200706,1,15,0,1,1,201812.0,0,0,2,0,12,0.0,0.0,0.0,D30,,40.067954,-75.381169
472,274473216,REMBIER FARMS,% TRACEY BIER,1262 FISCUS RD,KITTANNING,PA,16201-5310,0,3,3,1240,201110,1,15,0,1,1,201812.0,0,0,2,0,12,0.0,0.0,0.0,D20,,40.78176,-79.472175
473,232993930,KITZ & KATZ ANIMAL FOUNDATION INC,% JENNIFER ALBRECHT,3852 EAGLE RIDGE CT,HANOVER,PA,17331-8591,0,3,3,1000,199907,1,15,0,1,1,201812.0,0,0,2,0,12,0.0,0.0,0.0,D20,ALBRECHT JENNIFER PRES,39.7763,-76.888891
474,273772308,FURRY FUN DAY,% STEPHEN OLDT,P0 BOX 541,SHIPPENSBURG,PA,17257-0000,0,3,3,1000,201111,1,15,0,1,1,201812.0,0,0,2,0,12,0.0,0.0,0.0,D12,,40.070789,-77.45983
475,204206019,SPANKYS PROJECT EDUCATION AND RESCUE FOR CANINES INC,% MONICA GOEPFERT,150 NEAL RD,COATESVILLE,PA,19320-1740,0,3,3,4000,200805,1,15,0,1,1,201812.0,0,0,2,0,12,0.0,0.0,0.0,D20,SPERC,39.997352,-75.878053
476,203045880,DIAMOND ROCK WILDLIFE REHABILITATION CLINIC INC,% DEBRA WELTER,2030 DIAMOND ROCK ROAD,MALVERN,PA,19355-0000,0,3,3,1000,200602,1,15,0,1,1,201812.0,0,0,2,0,12,0.0,0.0,0.0,D34,,40.08289,-75.496224
477,813526499,MOON-LIT ACRES ANIMAL RESCUE AND REHABILITATION CENTER,,1226 SAINT THOMAS WILLIAMSON RD,SAINT THOMAS,PA,17252-9529,0,3,3,1400,201706,1,15,0,1,1,201810.0,0,0,2,0,10,0.0,0.0,0.0,D20,,39.904835,-77.79443
478,821211310,ONE VOICE FOR THE ABUSED DOMESTIC ANIMALS,,749 CENTER AVE,BUTLER,PA,16001-6510,0,3,3,4000,201706,1,15,0,1,1,201906.0,0,0,2,0,6,0.0,0.0,0.0,D20,OVADA,40.85181,-79.883134
479,472273062,GOOD OLD TAILS SENIOR ANIMAL RESCUE,% MEGAN POWERS,134 MCALLISTER ST,HANOVER,PA,17331-3327,0,3,3,1000,201502,1,15,0,1,1,201812.0,0,0,2,0,12,0.0,0.0,0.0,D20,,39.795887,-76.975962
480,010958214,THE RESCUE EXPRESS,,240 KIRK LN,MEDIA,PA,19063-2216,0,3,3,1000,201208,1,15,0,1,1,201712.0,0,0,2,0,12,0.0,0.0,0.0,D20,,39.929202,-75.395004
481,264221583,WILLOW SPRING DOG RESCUE,% BARBARA A SOLTYSIAK,479 E CHERRY RD,QUAKERTOWN,PA,18951-4403,0,3,3,1000,201006,1,15,0,1,1,201812.0,0,0,2,0,12,0.0,0.0,0.0,D20,,40.476556,-75.350331
482,232812244,THE MEOW HOUSE,% JUDY STEINBACHER,314 DECKMAN HOLLOW RD,WILLIAMSPORT,PA,17701-8813,0,3,3,4000,200309,1,15,0,5,1,201812.0,0,0,2,0,12,0.0,0.0,0.0,D20,,41.282433,-77.075204
483,453849856,EVO AND ELI S LOVE BOX INC,,313 COSELL DR,CHAMBERSBURG,PA,17201-8259,0,3,3,1000,201202,1,15,0,1,1,201812.0,0,0,2,0,12,0.0,0.0,0.0,D20,,39.916228,-77.678972
484,232811585,DELAWARE VALLEY SIBERIAN HUSKY RESCUE INC,,PO BOX 773,HORSHAM,PA,19044-0773,0,3,3,4000,199607,1,15,995913000,1,1,201812.0,0,0,2,0,12,0.0,0.0,0.0,D20,,40.191808,-75.150577
485,813511278,DORIS MAE FRIDINGER MILLER ANIMAL FOUNDATION INC,% MELISSA JAN MILLER,24A N HIGH ST,NEWVILLE,PA,17241-1109,0,3,3,4000,201802,1,15,0,1,1,201712.0,0,0,2,0,12,0.0,0.0,0.0,D20,,40.174199,-77.399984
486,454311591,TRAILS END CONSERVANCY,,2535 N HERMITAGE RD,HERMITAGE,PA,16148-6681,0,3,3,1000,201402,1,15,0,1,1,201812.0,0,0,2,0,12,0.0,0.0,0.0,D20,,41.268634,-80.443366
487,463637254,MAKING IT PAWSIBLE,% DIANE BUHL,PO BOX 26,NEW RINGGOLD,PA,17960-0026,0,3,3,1000,201407,1,15,0,1,1,201812.0,0,0,2,0,12,0.0,0.0,0.0,D99,,40.703416,-75.959812
488,463249535,ESSENCE OF LOVE ANIMAL RESCUE INC,,3101 HEIGHTS RD,ALIQUIPPA,PA,15001-5171,0,3,3,1200,201607,1,15,0,1,1,201812.0,0,0,2,0,12,0.0,0.0,0.0,D20,,40.570064,-80.253631
489,300552830,SHELTER ANIMAL PROJECT A NEW JERSEY NONPROFIT CORPORATION,% INCORP SERVICES INC,PO BOX 24,FAIRLESS HLS,PA,19030-0024,0,3,3,1000,200909,1,15,0,1,1,201812.0,0,0,2,0,12,0.0,0.0,0.0,D20,,40.17837,-74.85248
490,464986604,BRENDAS CAT RESCUE INC,% DEBRA E WELTER,8505 CHIPPEWA RD,PHILADELPHIA,PA,19128-1209,0,3,3,4000,201407,1,15,0,1,1,201812.0,0,0,2,0,12,0.0,0.0,0.0,D99,,40.063786,-75.227957
491,931322033,NW WILDLIFE CONSERVATION INC,% URSULA BECHERT,470 ORIOLE ST,PHILADELPHIA,PA,19128-4137,0,3,3,2800,200204,1,15,0,1,1,201812.0,0,0,2,0,12,0.0,0.0,0.0,D30,,40.049631,-75.235973
492,462420850,K9 HERO PORTRAIT PROJECT,,137 HYVIEW RD,STILLWATER,PA,17878-9311,0,3,3,1200,201410,1,15,0,1,1,201812.0,0,0,2,0,12,0.0,0.0,0.0,D20,,41.179774,-76.355928
493,262933371,GENTLE BENS GIANT BREED RESCUE,% NOREEN KOHL,805 HARTZELL SCHOOL RD,NEW BRIGHTON,PA,15066-4226,0,3,3,1240,200902,1,15,0,1,1,201812.0,0,0,2,0,12,0.0,0.0,0.0,D20,,40.769874,-80.178571
494,822758192,PREMIER K-9 RESCUE INC,,1745 HILLCREST LN,ASTON,PA,19014-1041,0,3,3,1000,201710,1,15,0,1,1,201805.0,0,0,2,0,5,0.0,0.0,0.0,D20,,39.886778,-75.453797
495,464386060,WESTERN PA SHELTIE RESCUE,,29 JESSICA LN,LEECHBURG,PA,15656-8962,0,3,3,1000,201410,1,15,0,1,1,201812.0,0,0,2,0,12,0.0,0.0,0.0,D20,,40.617973,-79.619695
496,800302390,FELINE FRIENDS OF ELLWOOD CITY INC,% KAREN GOEHRING,407 MAHONY AVE,ELLWOOD CITY,PA,16117-2547,0,3,3,4000,200905,1,15,0,1,1,201712.0,0,0,2,0,12,0.0,0.0,0.0,D20,,40.862309,-80.260407
497,271808948,SOFT-COATED WHEATEN TERRIER GENETIC RESEARCH FOUNDATION,% BETSY GEERTSON,PO BOX 275,LEMONT,PA,16851-0275,0,3,3,2000,201009,1,15,0,1,1,201712.0,0,0,2,0,12,0.0,0.0,0.0,D12,,40.808151,-77.812525
498,300576717,ANGELS OF MERCY ANIMAL RESCUE AND ADOPTION AGENCY INC,% JAMIE SPEELMAN,147 ARCH BRIDGE RD,DUNBAR,PA,15431-2341,0,3,3,1000,201106,1,15,0,5,1,201812.0,0,0,2,0,12,0.0,0.0,0.0,D20,,39.986616,-79.631001
499,273267757,HELP FOR PETS,% CHRISTINA FRANK TREASURER,PO BOX 541,LOCK HAVEN,PA,17745-0541,0,3,3,1000,201104,1,15,0,1,1,201812.0,0,0,2,0,12,0.0,0.0,0.0,D60,,41.13701,-77.44693
500,454593248,PAWS CROSSED RESCUE,,128 BROOKE FARM RD,WAYNE,PA,19087-4755,0,3,3,4000,201204,1,15,0,1,1,201812.0,0,0,2,0,12,0.0,0.0,0.0,D20,,40.03112,-75.396945
501,202578639,PHOENIX RESCUE GROUP,% MICHELE E MOYER,PO BOX 833,CARLISLE,PA,17013-0833,0,3,3,4100,200604,1,15,0,1,1,201812.0,0,0,2,0,12,0.0,0.0,0.0,D20,,40.27092,-77.164425
502,452814965,CHRISTINAS REPTILE & ANIMAL SANCTUARY,% CHRISTINA OBRECHT,339 LEHIGH AVE,PALMERTON,PA,18071-1809,0,3,3,2400,201209,1,15,0,1,1,201812.0,0,0,2,0,12,0.0,0.0,0.0,D30,,40.801072,-75.608476
503,831757833,THETURTLEROOM,% STEPHEN ENDERS,PO BOX 521,LITITZ,PA,17543-0521,0,3,3,4000,201904,1,15,0,1,1,201812.0,0,0,2,0,12,0.0,0.0,0.0,D20,,40.15732,-76.3069
504,233057410,QUEEN CITY TROUT NURSERY INC,% HAROLD MONK,2901 FISH HATCHERY RD,ALLENTOWN,PA,18103-9279,0,3,3,2000,201411,1,15,0,1,1,201812.0,0,0,2,0,12,0.0,0.0,0.0,D30,,40.563015,-75.513869
505,813684806,LAGOTTO ROMAGNOLO FOUNDATION,% CHRISTINE STENNER,646 STORE RD,HARLEYSVILLE,PA,19438-2718,0,3,3,1280,201609,1,15,0,1,1,201812.0,0,0,2,0,12,0.0,0.0,0.0,D20,,40.244764,-75.371056
506,200468315,GOLDEN RETREIVER ADOPTION PLACEMENT INC,% ANNETTE BAIADA,686 VERNON RD,SPRINGFIELD,PA,19064-2020,0,3,3,1000,200604,1,15,0,1,1,201812.0,0,0,2,0,12,0.0,0.0,0.0,D20,,39.925342,-75.35909
507,462042251,FOREVER LOVE RESCUE INC,% STEPHANIE BAUM,39 QUEEN ST,GETTYSBURG,PA,17325-2809,0,3,3,1000,201408,1,15,0,1,1,201812.0,0,0,2,0,12,0.0,0.0,0.0,D20,,39.821198,-77.234739
508,260482396,COZEE VALEE RESCUE & SANCTUARY,% BETH HEARN,9649 SIPES RD,HUNTINGDON,PA,16652-4909,0,3,3,4000,200808,1,15,0,1,1,201812.0,0,0,2,0,12,0.0,0.0,0.0,D20,,40.500785,-78.099586
509,461688562,DOBER INC,,PO BOX 614,BANGOR,PA,18013-0614,0,3,3,1000,201410,1,15,0,1,1,201812.0,0,0,2,0,12,0.0,0.0,0.0,D20,,40.904818,-75.194068
510,900791670,BLAIR COUNTY DOG PARK ASSOCIATION,% CAROL JOHNSON,PO BOX 191,MARTINSBURG,PA,16662-0191,0,3,3,1000,201312,1,15,0,1,1,201812.0,0,0,2,0,12,0.0,0.0,0.0,D20,,40.33984,-78.336709
511,261101788,KAT 0 9 TALES SANCTUARY,% LINDA MITTEN,1117 SHULL HILL RD,NEWPORT,PA,17074-8030,0,3,3,1000,201406,1,15,0,1,1,201812.0,0,0,2,0,12,0.0,0.0,0.0,D99,,40.48298,-77.241618
512,471989333,GREEN ROCKS RESCUE INC,,722 CREEK RD,KENNETT SQ,PA,19348-2667,0,3,3,2450,201507,1,15,0,1,1,201812.0,0,0,2,0,12,0.0,0.0,0.0,D60,,39.830413,-75.690844
513,820585046,HABITAT FOR HOUNDS ANIMAL RESCUE,% WENDY VOGEL,939 BOY SCOUT RD,BOSWELL,PA,15531-1954,0,3,3,4000,200411,1,15,0,1,1,201712.0,0,0,2,0,12,0.0,0.0,0.0,D20,,40.224745,-79.076136
514,262145916,ABSOLUTELY PURRFECT INC,,PO BOX 11,LENHARTSVILLE,PA,19534-0011,0,3,3,1000,200812,1,15,0,1,1,201812.0,0,0,2,0,12,0.0,0.0,0.0,D20,,40.573618,-75.864968
515,262780703,FOR THE ANIMALS SANCTUARY INC,% DEBRA KOWALSKI,5229 CIDER PRESS RD,SCHNECKSVILLE,PA,18078-2911,0,3,3,1200,201612,1,15,0,5,1,201905.0,0,0,2,0,5,0.0,0.0,0.0,D20,,40.688108,-75.596986
516,471272902,DOG TOWN RESCUE,% JENNIFER JOSEPH,180 GREEN HILL RD,TELFORD,PA,18969-2111,0,3,3,1000,201410,1,15,0,1,1,201812.0,0,0,2,0,12,0.0,0.0,0.0,D20,,40.333621,-75.365648
517,471529846,HOPE RESCUE,% SARA MACOSKO,32708 FOREST HOME RD,UNION CITY,PA,16438-2514,0,3,3,1400,201408,1,15,0,1,1,201812.0,0,0,2,0,12,0.0,0.0,0.0,D20,,41.800669,-79.900586
518,461003610,PERFECT MATCH ANIMAL RESCUE,,116 PILGRIM LN,DREXEL HILL,PA,19026-4912,0,3,3,1000,201402,1,15,0,1,1,201812.0,0,0,2,0,12,0.0,0.0,0.0,D20,,39.951738,-75.327398
519,824509325,SLATE BELT ANIMAL ADVOCACY GROUP,,715 S MAIN ST,BANGOR,PA,18013-2829,0,3,3,1200,201803,1,15,0,1,1,201812.0,0,0,2,0,12,0.0,0.0,0.0,D20,,40.858565,-75.203894
520,472192324,THINK OF ME ANIMAL RESCUE INC,% LISA DEVLIN,20 ELMCREST DR,DALLAS,PA,18612-9231,0,3,3,4000,201412,1,15,0,1,1,201812.0,0,0,2,0,12,0.0,0.0,0.0,D20,,41.341716,-75.979507
521,271862439,SUSAN GIBLIN FOUNDATION FOR ANIMAL WELLNESS AND WELFARE INC,% RAYMOND BROWN,211 HOUSE AVENUE,CAMP HILL,PA,17011-2326,0,3,3,4000,201012,1,15,0,1,1,201812.0,0,0,2,0,12,0.0,0.0,0.0,D20,,40.255846,-76.917341
522,205183865,ANIMAL RESCUE FOOD BANK ARF INC,% BARRY HAYNES,1240 ALPINE RD,WELLSVILLE,PA,17365-9577,0,3,3,1000,200609,1,15,0,1,1,201712.0,0,0,2,0,12,0.0,0.0,0.0,D20,,40.068566,-76.882537
523,814067162,EMEKAS FUND,% CHERYL MURPHY,7717 ROCKWELL AVE,PHILADELPHIA,PA,19111-2423,0,3,3,1400,201610,1,15,0,1,1,201812.0,0,0,2,0,12,0.0,0.0,0.0,D40,,40.06866,-75.083593
524,824946684,APOLLOS ANGELS,,1446 PAULTON ST,JOHNSTOWN,PA,15905-1952,0,3,3,1400,201808,1,15,0,1,1,201812.0,0,0,2,0,12,0.0,0.0,0.0,D12,,40.318779,-78.952366
525,461649604,GLAD DOGS FOUNDATION INC,% MARIANNE AHERN,2728 ARROWHEAD DR,LANGHORNE,PA,19053-3212,0,3,3,4000,201311,1,15,0,1,1,201812.0,0,0,2,0,12,0.0,0.0,0.0,D20,,40.164938,-74.951089
526,812494036,FRIENDS OF LILY INC,,5422 BAPTIST RD,PITTSBURGH,PA,15236-1738,0,3,3,1000,201605,1,15,0,1,1,201812.0,0,0,2,0,12,0.0,0.0,0.0,D20,,40.353244,-80.008051
527,810581323,MEADOWBROOK BIRD SANCTUARY,% GUY APPEL,1366 REVELATION RD,MEADOWBROOK,PA,19046-1022,0,3,3,1000,200502,1,15,0,1,1,201812.0,0,0,2,0,12,0.0,0.0,0.0,D20,,40.120709,-75.097163
528,464424170,RUBY THE LOST GREYHOUND,,716 S HILLVIEW RD,ALLENTOWN,PA,18103-6116,0,3,3,4000,201408,1,15,0,1,1,201612.0,0,0,2,0,12,0.0,0.0,0.0,D20,,40.571334,-75.533789
529,472993172,BEAUTIFUL FERAL FELINES,,PO BOX 405,MT PLEASANT,PA,15666-0405,0,3,3,1240,201512,1,15,0,1,1,201712.0,0,0,2,0,12,0.0,0.0,0.0,D20,,40.161024,-79.509814
530,824407700,CHESTER COUNTY WILDLIFE FOUNDATION,% KIMBERLY LLOYD,122 FROG HOLLOW RD,OXFORD,PA,19363-4204,0,3,3,2450,201803,1,15,0,1,1,201812.0,0,0,2,0,12,0.0,0.0,0.0,D34,,39.786607,-75.949358
